{
    "year": 2029,
    "language_count": 3371,
    "languages": [
        {
            "iso_code": "knw",
            "name": "!Xun",
            "speakers": 14835,
            "risk": "vulnerable",
            "series_type": "scenario",
            "family_root": "Kx'a",
            "latitude_map": -28.74358,
            "longitude_map": 23.983154,
            "vitality_group": "watch",
            "vitality_reason": "-1.5%/yr 2028→2029, 14835 speakers → vulnerable",
            "trend_confidence": "high"
        },
        {
            "iso_code": "bpk",
            "name": "'Ôrôê",
            "speakers": 507,
            "risk": "vulnerable",
            "series_type": "scenario",
            "family_root": "Austronesian",
            "latitude_map": -21.4223,
            "longitude_map": 165.4678,
            "vitality_group": "watch",
            "vitality_reason": "-2.9%/yr 2028→2029, 507 speakers → vulnerable",
            "trend_confidence": "high"
        },
        {
            "iso_code": "taa",
            "name": "(Lower) Tanana",
            "speakers": 18,
            "risk": "critical",
            "series_type": "scenario",
            "family_root": "Athabaskan-Eyak-Tlingit",
            "latitude_map": 64.605,
            "longitude_map": -149.0625,
            "vitality_group": "serious",
            "vitality_reason": "-10.0%/yr 2028→2029, 18 speakers → critical",
            "trend_confidence": "high"
        },
        {
            "iso_code": "hnh",
            "name": "||Ani",
            "speakers": 859,
            "risk": "vulnerable",
            "series_type": "scenario",
            "family_root": "Khoe",
            "latitude_map": -18.6462,
            "longitude_map": 22.1319,
            "vitality_group": "watch",
            "vitality_reason": "-2.9%/yr 2028→2029, 859 speakers → vulnerable",
            "trend_confidence": "high"
        },
        {
            "iso_code": "gnk",
            "name": "||Gana",
            "speakers": 884,
            "risk": "at_risk",
            "series_type": "scenario",
            "family_root": "Khoe",
            "latitude_map": -21.7824,
            "longitude_map": 21.8971,
            "vitality_group": "serious",
            "vitality_reason": "-3.1%/yr 2028→2029, 884 speakers → at_risk",
            "trend_confidence": "high"
        },
        {
            "iso_code": "gwj",
            "name": "|Gui",
            "speakers": 1262,
            "risk": "vulnerable",
            "series_type": "scenario",
            "family_root": "Khoe",
            "latitude_map": -22.118722,
            "longitude_map": 22.415146,
            "vitality_group": "watch",
            "vitality_reason": "-3.0%/yr 2028→2029, 1262 speakers → vulnerable",
            "trend_confidence": "high"
        },
        {
            "iso_code": "con",
            "name": "A'ingae",
            "speakers": 1391,
            "risk": "vulnerable",
            "series_type": "scenario",
            "family_root": "Isolate",
            "latitude_map": 0.054639,
            "longitude_map": -77.409417,
            "vitality_group": "watch",
            "vitality_reason": "-1.5%/yr 2028→2029, 1391 speakers → vulnerable",
            "trend_confidence": "high"
        },
        {
            "iso_code": "aas",
            "name": "Aasáx",
            "speakers": null,
            "risk": "unknown",
            "series_type": "scenario",
            "family_root": "Afro-Asiatic",
            "latitude_map": -5.1948,
            "longitude_map": 37.738,
            "vitality_group": "unknown",
            "vitality_reason": "no speaker data",
            "trend_confidence": "low"
        },
        {
            "iso_code": "abg",
            "name": "Abaga",
            "speakers": null,
            "risk": "lost",
            "series_type": "scenario",
            "family_root": "Nuclear Trans-New Guinea",
            "latitude_map": -6.12,
            "longitude_map": 145.66,
            "vitality_group": "gone",
            "vitality_reason": "+0.0%/yr 2023→2024, 5 speakers → lost",
            "trend_confidence": "high"
        },
        {
            "iso_code": "abf",
            "name": "Abai Sungai",
            "speakers": 215,
            "risk": "vulnerable",
            "series_type": "scenario",
            "family_root": "Austronesian",
            "latitude_map": 5.587,
            "longitude_map": 118.3695,
            "vitality_group": "watch",
            "vitality_reason": "-2.7%/yr 2028→2029, 215 speakers → vulnerable",
            "trend_confidence": "high"
        },
        {
            "iso_code": "aau",
            "name": "Abau",
            "speakers": 6011,
            "risk": "at_risk",
            "series_type": "scenario",
            "family_root": "Sepik",
            "latitude_map": -3.97,
            "longitude_map": 141.32,
            "vitality_group": "serious",
            "vitality_reason": "-3.0%/yr 2028→2029, 6011 speakers → at_risk",
            "trend_confidence": "high"
        },
        {
            "iso_code": "abq",
            "name": "Abaza",
            "speakers": 44395,
            "risk": "vulnerable",
            "series_type": "scenario",
            "family_root": "Northwest Caucasian",
            "latitude_map": 44.1556,
            "longitude_map": 41.9368,
            "vitality_group": "watch",
            "vitality_reason": "-1.5%/yr 2028→2029, 44395 speakers → vulnerable",
            "trend_confidence": "high"
        },
        {
            "iso_code": "abp",
            "name": "Abellen Ayta",
            "speakers": 3006,
            "risk": "at_risk",
            "series_type": "scenario",
            "family_root": "Austronesian",
            "latitude_map": 15.35,
            "longitude_map": 120.457,
            "vitality_group": "serious",
            "vitality_reason": "-3.0%/yr 2028→2029, 3006 speakers → at_risk",
            "trend_confidence": "high"
        },
        {
            "iso_code": "bsa",
            "name": "Abinomn",
            "speakers": 37,
            "risk": "critical",
            "series_type": "scenario",
            "family_root": "Isolate",
            "latitude_map": -2.92,
            "longitude_map": 138.89,
            "vitality_group": "serious",
            "vitality_reason": "-5.1%/yr 2028→2029, 37 speakers → critical",
            "trend_confidence": "high"
        },
        {
            "iso_code": "aob",
            "name": "Abom",
            "speakers": 11,
            "risk": "critical",
            "series_type": "scenario",
            "family_root": "Trans-New Guinea",
            "latitude_map": -8.424996,
            "longitude_map": 142.930359,
            "vitality_group": "serious",
            "vitality_reason": "-8.3%/yr 2028→2029, 11 speakers → critical",
            "trend_confidence": "high"
        },
        {
            "iso_code": "ado",
            "name": "Abu",
            "speakers": 2015,
            "risk": "at_risk",
            "series_type": "scenario",
            "family_root": "Lower Sepik-Ramu",
            "latitude_map": -4.24,
            "longitude_map": 144.47,
            "vitality_group": "serious",
            "vitality_reason": "-3.0%/yr 2028→2029, 2015 speakers → at_risk",
            "trend_confidence": "high"
        },
        {
            "iso_code": "aah",
            "name": "Abu'",
            "speakers": 2198,
            "risk": "at_risk",
            "series_type": "scenario",
            "family_root": "Torricelli",
            "latitude_map": -3.461612,
            "longitude_map": 142.917031,
            "vitality_group": "serious",
            "vitality_reason": "-3.0%/yr 2028→2029, 2198 speakers → at_risk",
            "trend_confidence": "high"
        },
        {
            "iso_code": "abz",
            "name": "Abui",
            "speakers": 13740,
            "risk": "at_risk",
            "series_type": "scenario",
            "family_root": "Timor-Alor-Pantar",
            "latitude_map": -8.25,
            "longitude_map": 124.666667,
            "vitality_group": "serious",
            "vitality_reason": "-3.0%/yr 2028→2029, 13740 speakers → at_risk",
            "trend_confidence": "high"
        },
        {
            "iso_code": "kgr",
            "name": "Abun",
            "speakers": 2576,
            "risk": "at_risk",
            "series_type": "scenario",
            "family_root": "Isolate",
            "latitude_map": -0.52,
            "longitude_map": 132.19,
            "vitality_group": "serious",
            "vitality_reason": "-3.0%/yr 2028→2029, 2576 speakers → at_risk",
            "trend_confidence": "high"
        },
        {
            "iso_code": "aca",
            "name": "Achagua",
            "speakers": 243,
            "risk": "at_risk",
            "series_type": "scenario",
            "family_root": "Arawakan",
            "latitude_map": 4.434,
            "longitude_map": -70.8837,
            "vitality_group": "serious",
            "vitality_reason": "-3.2%/yr 2028→2029, 243 speakers → at_risk",
            "trend_confidence": "high"
        },
        {
            "iso_code": "guq",
            "name": "Aché",
            "speakers": 147,
            "risk": "at_risk",
            "series_type": "scenario",
            "family_root": "Tupian",
            "latitude_map": -25.25,
            "longitude_map": -55.166667,
            "vitality_group": "serious",
            "vitality_reason": "-5.8%/yr 2028→2029, 147 speakers → at_risk",
            "trend_confidence": "high"
        },
        {
            "iso_code": "acz",
            "name": "Acheron",
            "speakers": 18544,
            "risk": "vulnerable",
            "series_type": "scenario",
            "family_root": "Niger-Congo",
            "latitude_map": 10.809,
            "longitude_map": 30.2453,
            "vitality_group": "watch",
            "vitality_reason": "-1.5%/yr 2028→2029, 18544 speakers → vulnerable",
            "trend_confidence": "high"
        },
        {
            "iso_code": "acr",
            "name": "Achi'",
            "speakers": 47838,
            "risk": "vulnerable",
            "series_type": "scenario",
            "family_root": "Mayan",
            "latitude_map": 15.0845,
            "longitude_map": -90.4888,
            "vitality_group": "watch",
            "vitality_reason": "-1.5%/yr 2028→2029, 47838 speakers → vulnerable",
            "trend_confidence": "high"
        },
        {
            "iso_code": "acu",
            "name": "Achuar",
            "speakers": 4674,
            "risk": "at_risk",
            "series_type": "scenario",
            "family_root": "Chicham family (Jivaroan)",
            "latitude_map": -2.876318,
            "longitude_map": -77.586775,
            "vitality_group": "serious",
            "vitality_reason": "-3.0%/yr 2028→2029, 4674 speakers → at_risk",
            "trend_confidence": "high"
        },
        {
            "iso_code": "acv",
            "name": "Achumawi",
            "speakers": null,
            "risk": "lost",
            "series_type": "scenario",
            "family_root": "Palaihnihan",
            "latitude_map": 41.320107,
            "longitude_map": -121.129761,
            "vitality_group": "gone",
            "vitality_reason": "+0.0%/yr 2023→2024, 5 speakers → lost",
            "trend_confidence": "high"
        },
        {
            "iso_code": "kjq",
            "name": "Acoma-Laguna",
            "speakers": 3435,
            "risk": "vulnerable",
            "series_type": "scenario",
            "family_root": "Keresan",
            "latitude_map": 34.8964,
            "longitude_map": -107.5816,
            "vitality_group": "watch",
            "vitality_reason": "-3.0%/yr 2028→2029, 3435 speakers → vulnerable",
            "trend_confidence": "high"
        },
        {
            "iso_code": "ads",
            "name": "Adamorobe Sign Language",
            "speakers": 30,
            "risk": "critical",
            "series_type": "scenario",
            "family_root": "Sign Language",
            "latitude_map": 5.859378,
            "longitude_map": -0.197951,
            "vitality_group": "serious",
            "vitality_reason": "-3.2%/yr 2028→2029, 30 speakers → critical",
            "trend_confidence": "high"
        },
        {
            "iso_code": "adn",
            "name": "Adang",
            "speakers": 6011,
            "risk": "at_risk",
            "series_type": "scenario",
            "family_root": "Timor-Alor-Pantar",
            "latitude_map": -8.195,
            "longitude_map": 124.484,
            "vitality_group": "serious",
            "vitality_reason": "-3.0%/yr 2028→2029, 6011 speakers → at_risk",
            "trend_confidence": "high"
        },
        {
            "iso_code": "tiu",
            "name": "Adasen Itneg",
            "speakers": 3435,
            "risk": "vulnerable",
            "series_type": "scenario",
            "family_root": "Austronesian",
            "latitude_map": 17.817292,
            "longitude_map": 120.936869,
            "vitality_group": "watch",
            "vitality_reason": "-3.0%/yr 2028→2029, 3435 speakers → vulnerable",
            "trend_confidence": "high"
        },
        {
            "iso_code": "adi",
            "name": "Adi",
            "speakers": 92898,
            "risk": "vulnerable",
            "series_type": "scenario",
            "family_root": "Sino-Tibetan",
            "latitude_map": 28.526319,
            "longitude_map": 93.115814,
            "vitality_group": "watch",
            "vitality_reason": "-1.5%/yr 2028→2029, 92898 speakers → vulnerable",
            "trend_confidence": "high"
        },
        {
            "iso_code": "dth",
            "name": "Adithinngithigh",
            "speakers": null,
            "risk": "unknown",
            "series_type": "scenario",
            "family_root": "Pama-Nyungan",
            "latitude_map": -12.887711,
            "longitude_map": 141.717248,
            "vitality_group": "unknown",
            "vitality_reason": "no speaker data",
            "trend_confidence": "low"
        },
        {
            "iso_code": "adt",
            "name": "Adnyamathanha",
            "speakers": 86,
            "risk": "at_risk",
            "series_type": "scenario",
            "family_root": "Pama-Nyungan",
            "latitude_map": -30.837141,
            "longitude_map": 139.12154,
            "vitality_group": "serious",
            "vitality_reason": "-3.4%/yr 2028→2029, 86 speakers → at_risk",
            "trend_confidence": "high"
        },
        {
            "iso_code": "adz",
            "name": "Adzera",
            "speakers": 26797,
            "risk": "vulnerable",
            "series_type": "scenario",
            "family_root": "Austronesian",
            "latitude_map": -6.39,
            "longitude_map": 146.29,
            "vitality_group": "watch",
            "vitality_reason": "-1.5%/yr 2028→2029, 26797 speakers → vulnerable",
            "trend_confidence": "high"
        },
        {
            "iso_code": "aeq",
            "name": "Aer",
            "speakers": 172,
            "risk": "vulnerable",
            "series_type": "scenario",
            "family_root": "Indo-European",
            "latitude_map": 25.25,
            "longitude_map": 69.03,
            "vitality_group": "watch",
            "vitality_reason": "-2.8%/yr 2028→2029, 172 speakers → vulnerable",
            "trend_confidence": "high"
        },
        {
            "iso_code": "aft",
            "name": "Afitti",
            "speakers": 3435,
            "risk": "vulnerable",
            "series_type": "scenario",
            "family_root": "Nyimang",
            "latitude_map": 12.13869,
            "longitude_map": 30.181732,
            "vitality_group": "watch",
            "vitality_reason": "-3.0%/yr 2028→2029, 3435 speakers → vulnerable",
            "trend_confidence": "high"
        },
        {
            "iso_code": "ulf",
            "name": "Afra",
            "speakers": 99,
            "risk": "vulnerable",
            "series_type": "scenario",
            "family_root": "Isolate",
            "latitude_map": -3.5449,
            "longitude_map": 140.7499,
            "vitality_group": "watch",
            "vitality_reason": "-2.9%/yr 2028→2029, 99 speakers → vulnerable",
            "trend_confidence": "high"
        },
        {
            "iso_code": "5qc",
            "name": "Aftari",
            "speakers": 464,
            "risk": "vulnerable",
            "series_type": "scenario",
            "family_root": "Indo-European",
            "latitude_map": 35.36,
            "longitude_map": 53.7,
            "vitality_group": "watch",
            "vitality_reason": "-1.5%/yr 2028→2029, 464 speakers → vulnerable",
            "trend_confidence": "high"
        },
        {
            "iso_code": "avo",
            "name": "Agavotaguerra",
            "speakers": null,
            "risk": "unknown",
            "series_type": "scenario",
            "family_root": "Arawakan",
            "latitude_map": -13.3,
            "longitude_map": -53.44,
            "vitality_group": "unknown",
            "vitality_reason": "no speaker data",
            "trend_confidence": "low"
        },
        {
            "iso_code": "gtu",
            "name": "Aghu-Tharnggala",
            "speakers": null,
            "risk": "unknown",
            "series_type": "scenario",
            "family_root": "Pama-Nyungan",
            "latitude_map": -15.117299,
            "longitude_map": 145.810382,
            "vitality_group": "unknown",
            "vitality_reason": "no speaker data",
            "trend_confidence": "low"
        },
        {
            "iso_code": "agx",
            "name": "Aghul",
            "speakers": 7729,
            "risk": "vulnerable",
            "series_type": "scenario",
            "family_root": "Northeast Caucasian",
            "latitude_map": 41.7518,
            "longitude_map": 47.6875,
            "vitality_group": "watch",
            "vitality_reason": "-3.0%/yr 2028→2029, 7729 speakers → vulnerable",
            "trend_confidence": "high"
        },
        {
            "iso_code": "aif",
            "name": "Agi",
            "speakers": 575,
            "risk": "at_risk",
            "series_type": "scenario",
            "family_root": "Torricelli",
            "latitude_map": -3.49,
            "longitude_map": 142.39,
            "vitality_group": "serious",
            "vitality_reason": "-3.0%/yr 2028→2029, 575 speakers → at_risk",
            "trend_confidence": "high"
        },
        {
            "iso_code": "agr",
            "name": "Aguaruna",
            "speakers": 50997,
            "risk": "vulnerable",
            "series_type": "scenario",
            "family_root": "Chicham family (Jivaroan)",
            "latitude_map": -4.3464,
            "longitude_map": -77.8271,
            "vitality_group": "watch",
            "vitality_reason": "-1.5%/yr 2028→2029, 50997 speakers → vulnerable",
            "trend_confidence": "high"
        },
        {
            "iso_code": "aug",
            "name": "Aguna",
            "speakers": 2980,
            "risk": "vulnerable",
            "series_type": "scenario",
            "family_root": "Niger-Congo",
            "latitude_map": 7.348379,
            "longitude_map": 1.933201,
            "vitality_group": "watch",
            "vitality_reason": "-3.0%/yr 2028→2029, 2980 speakers → vulnerable",
            "trend_confidence": "high"
        },
        {
            "iso_code": "wmi",
            "name": "Agwamin",
            "speakers": null,
            "risk": "lost",
            "series_type": "scenario",
            "family_root": "Pama-Nyungan",
            "latitude_map": -17.833869,
            "longitude_map": 144.235037,
            "vitality_group": "gone",
            "vitality_reason": "+0.0%/yr 2023→2024, 1 speakers → lost",
            "trend_confidence": "high"
        },
        {
            "iso_code": "ahn",
            "name": "Àhàn",
            "speakers": 258,
            "risk": "at_risk",
            "series_type": "scenario",
            "family_root": "Niger-Congo",
            "latitude_map": 7.762,
            "longitude_map": 5.724,
            "vitality_group": "serious",
            "vitality_reason": "-3.0%/yr 2028→2029, 258 speakers → at_risk",
            "trend_confidence": "high"
        },
        {
            "iso_code": "aht",
            "name": "Ahtna",
            "speakers": 22,
            "risk": "critical",
            "series_type": "scenario",
            "family_root": "Athabaskan-Eyak-Tlingit",
            "latitude_map": 62.7547,
            "longitude_map": -144.3164,
            "vitality_group": "serious",
            "vitality_reason": "-4.3%/yr 2028→2029, 22 speakers → critical",
            "trend_confidence": "high"
        },
        {
            "iso_code": "tba",
            "name": "Aikanã",
            "speakers": 174,
            "risk": "vulnerable",
            "series_type": "scenario",
            "family_root": "Isolate",
            "latitude_map": -12.651,
            "longitude_map": -60.3918,
            "vitality_group": "watch",
            "vitality_reason": "-1.7%/yr 2028→2029, 174 speakers → vulnerable",
            "trend_confidence": "high"
        },
        {
            "iso_code": "ymo",
            "name": "Aiku",
            "speakers": 703,
            "risk": "at_risk",
            "series_type": "scenario",
            "family_root": "Torricelli",
            "latitude_map": -3.51,
            "longitude_map": 142.46,
            "vitality_group": "serious",
            "vitality_reason": "-3.0%/yr 2028→2029, 703 speakers → at_risk",
            "trend_confidence": "high"
        },
        {
            "iso_code": "ail",
            "name": "Aimele",
            "speakers": 120,
            "risk": "at_risk",
            "series_type": "scenario",
            "family_root": "Trans-New Guinea",
            "latitude_map": -6.751896,
            "longitude_map": 142.745361,
            "vitality_group": "serious",
            "vitality_reason": "-3.2%/yr 2028→2029, 120 speakers → at_risk",
            "trend_confidence": "high"
        },
        {
            "iso_code": "aim",
            "name": "Aimol",
            "speakers": 2267,
            "risk": "vulnerable",
            "series_type": "scenario",
            "family_root": "Sino-Tibetan",
            "latitude_map": 24.4971,
            "longitude_map": 93.6145,
            "vitality_group": "watch",
            "vitality_reason": "-3.0%/yr 2028→2029, 2267 speakers → vulnerable",
            "trend_confidence": "high"
        },
        {
            "iso_code": "aic",
            "name": "Ainbai",
            "speakers": 94,
            "risk": "at_risk",
            "series_type": "scenario",
            "family_root": "Border",
            "latitude_map": -3.1,
            "longitude_map": 141.2,
            "vitality_group": "serious",
            "vitality_reason": "-3.1%/yr 2028→2029, 94 speakers → at_risk",
            "trend_confidence": "high"
        },
        {
            "iso_code": "aib",
            "name": "Ainu (China)",
            "speakers": 5152,
            "risk": "at_risk",
            "series_type": "scenario",
            "family_root": "Turkic",
            "latitude_map": 43.843,
            "longitude_map": 87.633,
            "vitality_group": "serious",
            "vitality_reason": "-3.0%/yr 2028→2029, 5152 speakers → at_risk",
            "trend_confidence": "high"
        },
        {
            "iso_code": "ain",
            "name": "Ainu (Japan)",
            "speakers": null,
            "risk": "lost",
            "series_type": "scenario",
            "family_root": "Isolate",
            "latitude_map": 47.3983,
            "longitude_map": 142.2949,
            "vitality_group": "gone",
            "vitality_reason": "+0.0%/yr 2023→2024, 2 speakers → lost",
            "trend_confidence": "high"
        },
        {
            "iso_code": "aki",
            "name": "Aiome",
            "speakers": 532,
            "risk": "at_risk",
            "series_type": "scenario",
            "family_root": "Lower Sepik-Ramu",
            "latitude_map": -5.13,
            "longitude_map": 144.76,
            "vitality_group": "serious",
            "vitality_reason": "-3.1%/yr 2028→2029, 532 speakers → at_risk",
            "trend_confidence": "high"
        },
        {
            "iso_code": "mmq",
            "name": "Aisi",
            "speakers": 215,
            "risk": "vulnerable",
            "series_type": "scenario",
            "family_root": "Trans-New Guinea",
            "latitude_map": -5.405093,
            "longitude_map": 145.175755,
            "vitality_group": "watch",
            "vitality_reason": "-2.7%/yr 2028→2029, 215 speakers → vulnerable",
            "trend_confidence": "high"
        },
        {
            "iso_code": "nfl",
            "name": "Äiwoo",
            "speakers": 7349,
            "risk": "vulnerable",
            "series_type": "scenario",
            "family_root": "Austronesian",
            "latitude_map": -10.303377,
            "longitude_map": 166.306967,
            "vitality_group": "watch",
            "vitality_reason": "-1.5%/yr 2028→2029, 7349 speakers → vulnerable",
            "trend_confidence": "high"
        },
        {
            "iso_code": "aja",
            "name": "Aja",
            "speakers": 172,
            "risk": "vulnerable",
            "series_type": "scenario",
            "family_root": "Kresh-Aja",
            "latitude_map": 8.6136,
            "longitude_map": 25.2465,
            "vitality_group": "watch",
            "vitality_reason": "-2.8%/yr 2028→2029, 172 speakers → vulnerable",
            "trend_confidence": "high"
        },
        {
            "iso_code": "muc",
            "name": "Ajumbu",
            "speakers": 215,
            "risk": "vulnerable",
            "series_type": "scenario",
            "family_root": "Niger-Congo",
            "latitude_map": 6.5391,
            "longitude_map": 10.238567,
            "vitality_group": "watch",
            "vitality_reason": "-2.7%/yr 2028→2029, 215 speakers → vulnerable",
            "trend_confidence": "high"
        },
        {
            "iso_code": "akq",
            "name": "Ak",
            "speakers": 29,
            "risk": "critical",
            "series_type": "scenario",
            "family_root": "Sepik",
            "latitude_map": -3.6093,
            "longitude_map": 141.6604,
            "vitality_group": "serious",
            "vitality_reason": "-6.5%/yr 2028→2029, 29 speakers → critical",
            "trend_confidence": "high"
        },
        {
            "iso_code": "soh",
            "name": "Aka",
            "speakers": 471,
            "risk": "at_risk",
            "series_type": "scenario",
            "family_root": "Eastern Jebel",
            "latitude_map": 11.0112,
            "longitude_map": 34.2333,
            "vitality_group": "serious",
            "vitality_reason": "-3.1%/yr 2028→2029, 471 speakers → at_risk",
            "trend_confidence": "high"
        },
        {
            "iso_code": "akm",
            "name": "Aka-Bo",
            "speakers": null,
            "risk": "unknown",
            "series_type": "scenario",
            "family_root": "Great Andamanese",
            "latitude_map": 13.270513,
            "longitude_map": 92.837538,
            "vitality_group": "unknown",
            "vitality_reason": "no speaker data",
            "trend_confidence": "low"
        },
        {
            "iso_code": "ack",
            "name": "Aka-Kora",
            "speakers": null,
            "risk": "unknown",
            "series_type": "scenario",
            "family_root": "Great Andamanese",
            "latitude_map": 13.390518,
            "longitude_map": 93.040969,
            "vitality_group": "unknown",
            "vitality_reason": "no speaker data",
            "trend_confidence": "low"
        },
        {
            "iso_code": "knj",
            "name": "Akateko",
            "speakers": 4785,
            "risk": "at_risk",
            "series_type": "scenario",
            "family_root": "Mayan",
            "latitude_map": 15.833333,
            "longitude_map": -91.833333,
            "vitality_group": "serious",
            "vitality_reason": "-3.0%/yr 2028→2029, 4785 speakers → at_risk",
            "trend_confidence": "high"
        },
        {
            "iso_code": "aik",
            "name": "Ake",
            "speakers": 927,
            "risk": "vulnerable",
            "series_type": "scenario",
            "family_root": "Niger-Congo",
            "latitude_map": 8.94748,
            "longitude_map": 8.835342,
            "vitality_group": "watch",
            "vitality_reason": "-1.5%/yr 2028→2029, 927 speakers → vulnerable",
            "trend_confidence": "high"
        },
        {
            "iso_code": "aeu",
            "name": "Akeu",
            "speakers": 4294,
            "risk": "vulnerable",
            "series_type": "scenario",
            "family_root": "Sino-Tibetan",
            "latitude_map": 21.5833,
            "longitude_map": 101.0166,
            "vitality_group": "watch",
            "vitality_reason": "-3.0%/yr 2028→2029, 4294 speakers → vulnerable",
            "trend_confidence": "high"
        },
        {
            "iso_code": "akv",
            "name": "Akhvakh",
            "speakers": 4294,
            "risk": "vulnerable",
            "series_type": "scenario",
            "family_root": "Northeast Caucasian",
            "latitude_map": 42.472,
            "longitude_map": 46.3238,
            "vitality_group": "watch",
            "vitality_reason": "-3.0%/yr 2028→2029, 4294 speakers → vulnerable",
            "trend_confidence": "high"
        },
        {
            "iso_code": "sia",
            "name": "Akkala Saami",
            "speakers": null,
            "risk": "lost",
            "series_type": "scenario",
            "family_root": "Uralic",
            "latitude_map": 67.5809,
            "longitude_map": 31.668,
            "vitality_group": "gone",
            "vitality_reason": "+0.0%/yr 2023→2024, 1 speakers → lost",
            "trend_confidence": "high"
        },
        {
            "iso_code": "miw",
            "name": "Akoye",
            "speakers": 687,
            "risk": "vulnerable",
            "series_type": "scenario",
            "family_root": "Trans-New Guinea",
            "latitude_map": -7.814405,
            "longitude_map": 145.675964,
            "vitality_group": "watch",
            "vitality_reason": "-3.0%/yr 2028→2029, 687 speakers → vulnerable",
            "trend_confidence": "high"
        },
        {
            "iso_code": "aku",
            "name": "Akum",
            "speakers": 515,
            "risk": "at_risk",
            "series_type": "scenario",
            "family_root": "Niger-Congo",
            "latitude_map": 6.73,
            "longitude_map": 9.9316,
            "vitality_group": "serious",
            "vitality_reason": "-3.0%/yr 2028→2029, 515 speakers → at_risk",
            "trend_confidence": "high"
        },
        {
            "iso_code": "aqz",
            "name": "Akuntsú",
            "speakers": null,
            "risk": "lost",
            "series_type": "scenario",
            "family_root": "Tupian",
            "latitude_map": -10.9,
            "longitude_map": -63.6,
            "vitality_group": "gone",
            "vitality_reason": "+0.0%/yr 2023→2024, 3 speakers → lost",
            "trend_confidence": "high"
        },
        {
            "iso_code": "ako",
            "name": "Akuriyo",
            "speakers": null,
            "risk": "lost",
            "series_type": "scenario",
            "family_root": "Cariban",
            "latitude_map": 2.8442,
            "longitude_map": -55.7556,
            "vitality_group": "gone",
            "vitality_reason": "+0.0%/yr 2023→2024, 10 speakers → lost",
            "trend_confidence": "high"
        },
        {
            "iso_code": "syy",
            "name": "Al-Sayyid Bedouin Sign Language",
            "speakers": 129,
            "risk": "at_risk",
            "series_type": "scenario",
            "family_root": "Sign Language",
            "latitude_map": 30.377614,
            "longitude_map": 34.886169,
            "vitality_group": "serious",
            "vitality_reason": "-3.0%/yr 2028→2029, 129 speakers → at_risk",
            "trend_confidence": "high"
        },
        {
            "iso_code": "akz",
            "name": "Alabama",
            "speakers": 236,
            "risk": "vulnerable",
            "series_type": "scenario",
            "family_root": "Muskogean",
            "latitude_map": 30.7158,
            "longitude_map": -94.7028,
            "vitality_group": "watch",
            "vitality_reason": "-2.9%/yr 2028→2029, 236 speakers → vulnerable",
            "trend_confidence": "high"
        },
        {
            "iso_code": "nog-tat",
            "name": "Alabugat Tatar",
            "speakers": 371,
            "risk": "vulnerable",
            "series_type": "scenario",
            "family_root": "Turkic",
            "latitude_map": 43.59,
            "longitude_map": 46.66,
            "vitality_group": "watch",
            "vitality_reason": "-1.6%/yr 2028→2029, 371 speakers → vulnerable",
            "trend_confidence": "high"
        },
        {
            "iso_code": "ala",
            "name": "Alago",
            "speakers": 13908,
            "risk": "vulnerable",
            "series_type": "scenario",
            "family_root": "Niger-Congo",
            "latitude_map": 8.110174,
            "longitude_map": 9.14293,
            "vitality_group": "watch",
            "vitality_reason": "-1.5%/yr 2028→2029, 13908 speakers → vulnerable",
            "trend_confidence": "high"
        },
        {
            "iso_code": "wbj",
            "name": "Alagwa",
            "speakers": 4294,
            "risk": "vulnerable",
            "series_type": "scenario",
            "family_root": "Afro-Asiatic",
            "latitude_map": -5.5,
            "longitude_map": 35.75,
            "vitality_group": "watch",
            "vitality_reason": "-3.0%/yr 2028→2029, 4294 speakers → vulnerable",
            "trend_confidence": "high"
        },
        {
            "iso_code": "amp",
            "name": "Alamblak",
            "speakers": 1030,
            "risk": "at_risk",
            "series_type": "scenario",
            "family_root": "Sepik",
            "latitude_map": -4.66,
            "longitude_map": 143.32,
            "vitality_group": "serious",
            "vitality_reason": "-3.0%/yr 2028→2029, 1030 speakers → at_risk",
            "trend_confidence": "high"
        },
        {
            "iso_code": "alh",
            "name": "Alawa",
            "speakers": 12,
            "risk": "critical",
            "series_type": "scenario",
            "family_root": "Gunwinyguan",
            "latitude_map": -15.533919,
            "longitude_map": 134.202823,
            "vitality_group": "serious",
            "vitality_reason": "-7.7%/yr 2028→2029, 12 speakers → critical",
            "trend_confidence": "high"
        },
        {
            "iso_code": "zas",
            "name": "Albarradas Zapotec",
            "speakers": 5100,
            "risk": "vulnerable",
            "series_type": "scenario",
            "family_root": "Otomanguean",
            "latitude_map": 17.066921,
            "longitude_map": -96.20071,
            "vitality_group": "watch",
            "vitality_reason": "-1.5%/yr 2028→2029, 5100 speakers → vulnerable",
            "trend_confidence": "high"
        },
        {
            "iso_code": "gah",
            "name": "Alekano",
            "speakers": 23180,
            "risk": "vulnerable",
            "series_type": "scenario",
            "family_root": "Trans-New Guinea",
            "latitude_map": -6.086192,
            "longitude_map": 145.386028,
            "vitality_group": "watch",
            "vitality_reason": "-1.5%/yr 2028→2029, 23180 speakers → vulnerable",
            "trend_confidence": "high"
        },
        {
            "iso_code": "ale",
            "name": "Aleut",
            "speakers": null,
            "risk": "lost",
            "series_type": "scenario",
            "family_root": "Eskimo-Aleut",
            "latitude_map": 54.7212,
            "longitude_map": -164.4433,
            "vitality_group": "gone",
            "vitality_reason": "-97.4%/yr 2023→2024, 4 speakers → lost",
            "trend_confidence": "high"
        },
        {
            "iso_code": "afk, afp",
            "name": "Alfendio",
            "speakers": 587,
            "risk": "vulnerable",
            "series_type": "scenario",
            "family_root": "Arafundi",
            "latitude_map": -4.75,
            "longitude_map": 143.64,
            "vitality_group": "watch",
            "vitality_reason": "-1.5%/yr 2028→2029, 587 speakers → vulnerable",
            "trend_confidence": "high"
        },
        {
            "iso_code": "cat-alg",
            "name": "Algherese Catalan",
            "speakers": 23180,
            "risk": "vulnerable",
            "series_type": "scenario",
            "family_root": "Indo-European",
            "latitude_map": 40.564318,
            "longitude_map": 8.328667,
            "vitality_group": "watch",
            "vitality_reason": "-1.5%/yr 2028→2029, 23180 speakers → vulnerable",
            "trend_confidence": "high"
        },
        {
            "iso_code": "1kt",
            "name": "Alipur Sign Language",
            "speakers": 5099,
            "risk": "vulnerable",
            "series_type": "scenario",
            "family_root": "Sign Language",
            "latitude_map": 13.486,
            "longitude_map": 77.452,
            "vitality_group": "watch",
            "vitality_reason": "-1.5%/yr 2028→2029, 5099 speakers → vulnerable",
            "trend_confidence": "high"
        },
        {
            "iso_code": "all",
            "name": "Allar",
            "speakers": 301,
            "risk": "vulnerable",
            "series_type": "scenario",
            "family_root": "Dravidian",
            "latitude_map": 11.108169,
            "longitude_map": 76.166224,
            "vitality_group": "watch",
            "vitality_reason": "-2.9%/yr 2028→2029, 301 speakers → vulnerable",
            "trend_confidence": "high"
        },
        {
            "iso_code": "aid",
            "name": "Alngith",
            "speakers": null,
            "risk": "lost",
            "series_type": "scenario",
            "family_root": "Pama-Nyungan",
            "latitude_map": -12.573105,
            "longitude_map": 141.869154,
            "vitality_group": "gone",
            "vitality_reason": "+0.0%/yr 2023→2024, 3 speakers → lost",
            "trend_confidence": "high"
        },
        {
            "iso_code": "qvm",
            "name": "Alto Marañón Quechua",
            "speakers": 77330,
            "risk": "vulnerable",
            "series_type": "scenario",
            "family_root": "Quechuan",
            "latitude_map": -9.932,
            "longitude_map": -76.242,
            "vitality_group": "watch",
            "vitality_reason": "-1.5%/yr 2028→2029, 77330 speakers → vulnerable",
            "trend_confidence": "high"
        },
        {
            "iso_code": "dia",
            "name": "Alu",
            "speakers": 1614,
            "risk": "at_risk",
            "series_type": "scenario",
            "family_root": "Torricelli",
            "latitude_map": -3.39,
            "longitude_map": 142.25,
            "vitality_group": "serious",
            "vitality_reason": "-3.0%/yr 2028→2029, 1614 speakers → at_risk",
            "trend_confidence": "high"
        },
        {
            "iso_code": "xua",
            "name": "Alu Kurumba",
            "speakers": 859,
            "risk": "vulnerable",
            "series_type": "scenario",
            "family_root": "Dravidian",
            "latitude_map": 11.35,
            "longitude_map": 76.8,
            "vitality_group": "watch",
            "vitality_reason": "-2.9%/yr 2028→2029, 859 speakers → vulnerable",
            "trend_confidence": "high"
        },
        {
            "iso_code": "alp",
            "name": "Alune",
            "speakers": 11127,
            "risk": "vulnerable",
            "series_type": "scenario",
            "family_root": "Austronesian",
            "latitude_map": -3.0637,
            "longitude_map": 128.3752,
            "vitality_group": "watch",
            "vitality_reason": "-1.5%/yr 2028→2029, 11127 speakers → vulnerable",
            "trend_confidence": "high"
        },
        {
            "iso_code": "yna",
            "name": "Aluo",
            "speakers": 17175,
            "risk": "vulnerable",
            "series_type": "scenario",
            "family_root": "Sino-Tibetan",
            "latitude_map": 25.9368,
            "longitude_map": 102.1839,
            "vitality_group": "watch",
            "vitality_reason": "-3.0%/yr 2028→2029, 17175 speakers → vulnerable",
            "trend_confidence": "high"
        },
        {
            "iso_code": "ems",
            "name": "Alutiiq",
            "speakers": 147,
            "risk": "at_risk",
            "series_type": "scenario",
            "family_root": "Eskimo-Aleut",
            "latitude_map": 57.793056,
            "longitude_map": -152.394167,
            "vitality_group": "serious",
            "vitality_reason": "-5.8%/yr 2028→2029, 147 speakers → at_risk",
            "trend_confidence": "high"
        },
        {
            "iso_code": "alr",
            "name": "Alutor",
            "speakers": 734,
            "risk": "at_risk",
            "series_type": "scenario",
            "family_root": "Chukotko-Kamchatkan",
            "latitude_map": 60.2016,
            "longitude_map": 165.4238,
            "vitality_group": "serious",
            "vitality_reason": "-6.0%/yr 2028→2029, 734 speakers → at_risk",
            "trend_confidence": "high"
        },
        {
            "iso_code": "avd",
            "name": "Alviri-Vidari",
            "speakers": null,
            "risk": "unknown",
            "series_type": "scenario",
            "family_root": "Indo-European",
            "latitude_map": 35.01,
            "longitude_map": 50.38,
            "vitality_group": "unknown",
            "vitality_reason": "no speaker data",
            "trend_confidence": "low"
        },
        {
            "iso_code": "aly",
            "name": "Alyawarr",
            "speakers": 1543,
            "risk": "vulnerable",
            "series_type": "scenario",
            "family_root": "Pama-Nyungan",
            "latitude_map": -22.291522,
            "longitude_map": 135.963709,
            "vitality_group": "watch",
            "vitality_reason": "-1.5%/yr 2028→2029, 1543 speakers → vulnerable",
            "trend_confidence": "high"
        },
        {
            "iso_code": "amm",
            "name": "Ama",
            "speakers": 417,
            "risk": "vulnerable",
            "series_type": "scenario",
            "family_root": "Left May",
            "latitude_map": -4.2,
            "longitude_map": 141.66,
            "vitality_group": "watch",
            "vitality_reason": "-1.7%/yr 2028→2029, 417 speakers → vulnerable",
            "trend_confidence": "high"
        },
        {
            "iso_code": "amq",
            "name": "Amahai",
            "speakers": 37,
            "risk": "critical",
            "series_type": "scenario",
            "family_root": "Austronesian",
            "latitude_map": -3.3352,
            "longitude_map": 128.9314,
            "vitality_group": "serious",
            "vitality_reason": "-5.1%/yr 2028→2029, 37 speakers → critical",
            "trend_confidence": "high"
        },
        {
            "iso_code": "amc",
            "name": "Amahuaca",
            "speakers": 162,
            "risk": "vulnerable",
            "series_type": "scenario",
            "family_root": "Pano-Tacanan",
            "latitude_map": -10.8764,
            "longitude_map": -72.29,
            "vitality_group": "watch",
            "vitality_reason": "-3.0%/yr 2028→2029, 162 speakers → vulnerable",
            "trend_confidence": "high"
        },
        {
            "iso_code": "aad",
            "name": "Amal",
            "speakers": 333,
            "risk": "vulnerable",
            "series_type": "scenario",
            "family_root": "Sepik",
            "latitude_map": -4.05,
            "longitude_map": 142.0,
            "vitality_group": "watch",
            "vitality_reason": "-2.9%/yr 2028→2029, 333 speakers → vulnerable",
            "trend_confidence": "high"
        },
        {
            "iso_code": "kzg, xug, ryn, okn, ams, tkn, yox",
            "name": "Amami-North Okinawan",
            "speakers": 92722,
            "risk": "vulnerable",
            "series_type": "scenario",
            "family_root": "Japonic",
            "latitude_map": 28.3672,
            "longitude_map": 129.4958,
            "vitality_group": "watch",
            "vitality_reason": "-1.5%/yr 2028→2029, 92722 speakers → vulnerable",
            "trend_confidence": "high"
        },
        {
            "iso_code": "amn",
            "name": "Amanab",
            "speakers": 3006,
            "risk": "at_risk",
            "series_type": "scenario",
            "family_root": "Border",
            "latitude_map": -3.55,
            "longitude_map": 141.18,
            "vitality_group": "serious",
            "vitality_reason": "-3.0%/yr 2028→2029, 3006 speakers → at_risk",
            "trend_confidence": "high"
        },
        {
            "iso_code": "ama",
            "name": "Amanayé",
            "speakers": null,
            "risk": "unknown",
            "series_type": "scenario",
            "family_root": "Tupian",
            "latitude_map": -3.7327,
            "longitude_map": -49.1088,
            "vitality_group": "unknown",
            "vitality_reason": "no speaker data",
            "trend_confidence": "low"
        },
        {
            "iso_code": "aie",
            "name": "Amara",
            "speakers": 100,
            "risk": "vulnerable",
            "series_type": "scenario",
            "family_root": "Austronesian",
            "latitude_map": -5.51655,
            "longitude_map": 148.765182,
            "vitality_group": "watch",
            "vitality_reason": "-2.9%/yr 2028→2029, 100 speakers → vulnerable",
            "trend_confidence": "high"
        },
        {
            "iso_code": "aaz",
            "name": "Amarasi",
            "speakers": 64905,
            "risk": "vulnerable",
            "series_type": "scenario",
            "family_root": "Austronesian",
            "latitude_map": -10.08,
            "longitude_map": 124.33,
            "vitality_group": "watch",
            "vitality_reason": "-1.5%/yr 2028→2029, 64905 speakers → vulnerable",
            "trend_confidence": "high"
        },
        {
            "iso_code": "aew",
            "name": "Ambakich",
            "speakers": 661,
            "risk": "at_risk",
            "series_type": "scenario",
            "family_root": "Lower Sepik-Ramu",
            "latitude_map": -4.2,
            "longitude_map": 144.25,
            "vitality_group": "serious",
            "vitality_reason": "-3.1%/yr 2028→2029, 661 speakers → at_risk",
            "trend_confidence": "high"
        },
        {
            "iso_code": "ael",
            "name": "Ambele",
            "speakers": 3338,
            "risk": "vulnerable",
            "series_type": "scenario",
            "family_root": "Niger-Congo",
            "latitude_map": 5.868,
            "longitude_map": 9.765,
            "vitality_group": "watch",
            "vitality_reason": "-1.5%/yr 2028→2029, 3338 speakers → vulnerable",
            "trend_confidence": "high"
        },
        {
            "iso_code": "abt, wos",
            "name": "Ambulas",
            "speakers": 30598,
            "risk": "vulnerable",
            "series_type": "scenario",
            "family_root": "Sepik",
            "latitude_map": -3.78,
            "longitude_map": 143.06,
            "vitality_group": "watch",
            "vitality_reason": "-1.5%/yr 2028→2029, 30598 speakers → vulnerable",
            "trend_confidence": "high"
        },
        {
            "iso_code": "amj",
            "name": "Amdang",
            "speakers": 4294,
            "risk": "vulnerable",
            "series_type": "scenario",
            "family_root": "Furan",
            "latitude_map": 14.62478,
            "longitude_map": 20.944645,
            "vitality_group": "watch",
            "vitality_reason": "-3.0%/yr 2028→2029, 4294 speakers → vulnerable",
            "trend_confidence": "high"
        },
        {
            "iso_code": "aqd",
            "name": "Ampari",
            "speakers": 4465,
            "risk": "at_risk",
            "series_type": "scenario",
            "family_root": "Niger-Congo",
            "latitude_map": 14.257728,
            "longitude_map": -3.90712,
            "vitality_group": "serious",
            "vitality_reason": "-3.0%/yr 2028→2029, 4465 speakers → at_risk",
            "trend_confidence": "high"
        },
        {
            "iso_code": "law-amp",
            "name": "Ampibabo",
            "speakers": 5563,
            "risk": "vulnerable",
            "series_type": "scenario",
            "family_root": "Austronesian",
            "latitude_map": -0.5,
            "longitude_map": 120.0,
            "vitality_group": "watch",
            "vitality_reason": "-1.5%/yr 2028→2029, 5563 speakers → vulnerable",
            "trend_confidence": "high"
        },
        {
            "iso_code": "amt",
            "name": "Amto",
            "speakers": 198,
            "risk": "vulnerable",
            "series_type": "scenario",
            "family_root": "Amto-Musan",
            "latitude_map": -4.052936,
            "longitude_map": 141.328445,
            "vitality_group": "watch",
            "vitality_reason": "-2.9%/yr 2028→2029, 198 speakers → vulnerable",
            "trend_confidence": "high"
        },
        {
            "iso_code": "ame",
            "name": "Amuesha",
            "speakers": 6870,
            "risk": "vulnerable",
            "series_type": "scenario",
            "family_root": "Arawakan",
            "latitude_map": -10.3743,
            "longitude_map": -75.2343,
            "vitality_group": "watch",
            "vitality_reason": "-3.0%/yr 2028→2029, 6870 speakers → vulnerable",
            "trend_confidence": "high"
        },
        {
            "iso_code": "1ot",
            "name": "Amur Nivkh",
            "speakers": 464,
            "risk": "vulnerable",
            "series_type": "scenario",
            "family_root": "Nivkh",
            "latitude_map": 53.2684,
            "longitude_map": 140.4107,
            "vitality_group": "watch",
            "vitality_reason": "-1.5%/yr 2028→2029, 464 speakers → vulnerable",
            "trend_confidence": "high"
        },
        {
            "iso_code": "amg",
            "name": "Amurdak",
            "speakers": null,
            "risk": "lost",
            "series_type": "scenario",
            "family_root": "Iwaidjan",
            "latitude_map": -11.149603,
            "longitude_map": 132.576973,
            "vitality_group": "gone",
            "vitality_reason": "+0.0%/yr 2023→2024, 4 speakers → lost",
            "trend_confidence": "high"
        },
        {
            "iso_code": "anw",
            "name": "Anaang",
            "speakers": 679687,
            "risk": "vulnerable",
            "series_type": "scenario",
            "family_root": "Niger-Congo",
            "latitude_map": 5.182927,
            "longitude_map": 7.715479,
            "vitality_group": "watch",
            "vitality_reason": "-1.5%/yr 2028→2029, 679687 speakers → vulnerable",
            "trend_confidence": "high"
        },
        {
            "iso_code": "akg",
            "name": "Anakalangu",
            "speakers": 23180,
            "risk": "vulnerable",
            "series_type": "scenario",
            "family_root": "Austronesian",
            "latitude_map": -9.576376,
            "longitude_map": 119.586182,
            "vitality_group": "watch",
            "vitality_reason": "-1.5%/yr 2028→2029, 23180 speakers → vulnerable",
            "trend_confidence": "high"
        },
        {
            "iso_code": "anm",
            "name": "Anal",
            "speakers": 47230,
            "risk": "at_risk",
            "series_type": "scenario",
            "family_root": "Sino-Tibetan",
            "latitude_map": 24.1517,
            "longitude_map": 93.9385,
            "vitality_group": "serious",
            "vitality_reason": "-3.0%/yr 2028→2029, 47230 speakers → at_risk",
            "trend_confidence": "high"
        },
        {
            "iso_code": "pda",
            "name": "Anam",
            "speakers": 919,
            "risk": "vulnerable",
            "series_type": "scenario",
            "family_root": "Trans-New Guinea",
            "latitude_map": -4.811839,
            "longitude_map": 145.008545,
            "vitality_group": "watch",
            "vitality_reason": "-3.0%/yr 2028→2029, 919 speakers → vulnerable",
            "trend_confidence": "high"
        },
        {
            "iso_code": "aan",
            "name": "Anambé of Cairarí",
            "speakers": null,
            "risk": "unknown",
            "series_type": "scenario",
            "family_root": "Tupian",
            "latitude_map": -2.592,
            "longitude_map": -49.483,
            "vitality_group": "unknown",
            "vitality_reason": "no speaker data",
            "trend_confidence": "low"
        },
        {
            "iso_code": "ajn",
            "name": "Andajin",
            "speakers": null,
            "risk": "lost",
            "series_type": "scenario",
            "family_root": "Worrorran",
            "latitude_map": -17.376608,
            "longitude_map": 126.259285,
            "vitality_group": "gone",
            "vitality_reason": "2 speakers → effectively lost",
            "trend_confidence": "low"
        },
        {
            "iso_code": "aod",
            "name": "Andarum",
            "speakers": 713,
            "risk": "vulnerable",
            "series_type": "scenario",
            "family_root": "Lower Sepik-Ramu",
            "latitude_map": -4.49,
            "longitude_map": 144.77,
            "vitality_group": "watch",
            "vitality_reason": "-3.0%/yr 2028→2029, 713 speakers → vulnerable",
            "trend_confidence": "high"
        },
        {
            "iso_code": "mrp",
            "name": "Ande",
            "speakers": 429,
            "risk": "at_risk",
            "series_type": "scenario",
            "family_root": "Austronesian",
            "latitude_map": -15.470705,
            "longitude_map": 166.936238,
            "vitality_group": "serious",
            "vitality_reason": "-3.2%/yr 2028→2029, 429 speakers → at_risk",
            "trend_confidence": "high"
        },
        {
            "iso_code": "ani",
            "name": "Andi",
            "speakers": 13908,
            "risk": "vulnerable",
            "series_type": "scenario",
            "family_root": "Northeast Caucasian",
            "latitude_map": 42.7308,
            "longitude_map": 46.2963,
            "vitality_group": "watch",
            "vitality_reason": "-1.5%/yr 2028→2029, 13908 speakers → vulnerable",
            "trend_confidence": "high"
        },
        {
            "iso_code": "bzb",
            "name": "Andio",
            "speakers": 1460,
            "risk": "vulnerable",
            "series_type": "scenario",
            "family_root": "Austronesian",
            "latitude_map": -0.8514,
            "longitude_map": 123.1457,
            "vitality_group": "watch",
            "vitality_reason": "-3.0%/yr 2028→2029, 1460 speakers → vulnerable",
            "trend_confidence": "high"
        },
        {
            "iso_code": "anb",
            "name": "Andoa",
            "speakers": null,
            "risk": "unknown",
            "series_type": "scenario",
            "family_root": "Zaparoan",
            "latitude_map": -2.6796,
            "longitude_map": -76.2011,
            "vitality_group": "unknown",
            "vitality_reason": "no speaker data",
            "trend_confidence": "low"
        },
        {
            "iso_code": "ano",
            "name": "Andoque",
            "speakers": null,
            "risk": "lost",
            "series_type": "scenario",
            "family_root": "Isolate",
            "latitude_map": -0.769,
            "longitude_map": -72.2351,
            "vitality_group": "gone",
            "vitality_reason": "+0.0%/yr 2023→2024, 3 speakers → lost",
            "trend_confidence": "high"
        },
        {
            "iso_code": "anz",
            "name": "Anem",
            "speakers": 724,
            "risk": "vulnerable",
            "series_type": "scenario",
            "family_root": "Isolate",
            "latitude_map": -5.54836,
            "longitude_map": 148.993,
            "vitality_group": "watch",
            "vitality_reason": "-2.9%/yr 2028→2029, 724 speakers → vulnerable",
            "trend_confidence": "high"
        },
        {
            "iso_code": "myo",
            "name": "Anfillo",
            "speakers": 429,
            "risk": "at_risk",
            "series_type": "scenario",
            "family_root": "Afro-Asiatic",
            "latitude_map": 8.5049,
            "longitude_map": 34.7415,
            "vitality_group": "serious",
            "vitality_reason": "-3.2%/yr 2028→2029, 429 speakers → at_risk",
            "trend_confidence": "high"
        },
        {
            "iso_code": "aqt",
            "name": "Angaité",
            "speakers": 572,
            "risk": "at_risk",
            "series_type": "scenario",
            "family_root": "Enlhet-Enenlhet (Mascoyan)",
            "latitude_map": -21.937968,
            "longitude_map": -59.958687,
            "vitality_group": "serious",
            "vitality_reason": "-6.1%/yr 2028→2029, 572 speakers → at_risk",
            "trend_confidence": "high"
        },
        {
            "iso_code": "agg",
            "name": "Angor",
            "speakers": 1073,
            "risk": "at_risk",
            "series_type": "scenario",
            "family_root": "Senagi",
            "latitude_map": -3.72,
            "longitude_map": 141.2,
            "vitality_group": "serious",
            "vitality_reason": "-3.1%/yr 2028→2029, 1073 speakers → at_risk",
            "trend_confidence": "high"
        },
        {
            "iso_code": "aog",
            "name": "Angoram",
            "speakers": 6040,
            "risk": "vulnerable",
            "series_type": "scenario",
            "family_root": "Lower Sepik-Ramu",
            "latitude_map": -4.08,
            "longitude_map": 144.03,
            "vitality_group": "watch",
            "vitality_reason": "-1.5%/yr 2028→2029, 6040 speakers → vulnerable",
            "trend_confidence": "high"
        },
        {
            "iso_code": "blo",
            "name": "Anii",
            "speakers": 11590,
            "risk": "vulnerable",
            "series_type": "scenario",
            "family_root": "Niger-Congo",
            "latitude_map": 9.032,
            "longitude_map": 1.657,
            "vitality_group": "watch",
            "vitality_reason": "-1.5%/yr 2028→2029, 11590 speakers → vulnerable",
            "trend_confidence": "high"
        },
        {
            "iso_code": "anf",
            "name": "Animere",
            "speakers": 22,
            "risk": "critical",
            "series_type": "scenario",
            "family_root": "Niger-Congo",
            "latitude_map": 7.6129,
            "longitude_map": 0.4064,
            "vitality_group": "serious",
            "vitality_reason": "-4.3%/yr 2028→2029, 22 speakers → critical",
            "trend_confidence": "high"
        },
        {
            "iso_code": "aoi",
            "name": "Anindilyakwa",
            "speakers": 1288,
            "risk": "at_risk",
            "series_type": "scenario",
            "family_root": "Gunwinyguan",
            "latitude_map": -13.939399,
            "longitude_map": 136.592789,
            "vitality_group": "serious",
            "vitality_reason": "-3.0%/yr 2028→2029, 1288 speakers → at_risk",
            "trend_confidence": "high"
        },
        {
            "iso_code": "amx",
            "name": "Anmatyerre",
            "speakers": 644,
            "risk": "at_risk",
            "series_type": "scenario",
            "family_root": "Pama-Nyungan",
            "latitude_map": -21.982775,
            "longitude_map": 133.429034,
            "vitality_group": "serious",
            "vitality_reason": "-3.0%/yr 2028→2029, 644 speakers → at_risk",
            "trend_confidence": "high"
        },
        {
            "iso_code": "nun",
            "name": "Anong",
            "speakers": 2965,
            "risk": "at_risk",
            "series_type": "scenario",
            "family_root": "Sino-Tibetan",
            "latitude_map": 27.1,
            "longitude_map": 98.7,
            "vitality_group": "serious",
            "vitality_reason": "-6.0%/yr 2028→2029, 2965 speakers → at_risk",
            "trend_confidence": "high"
        },
        {
            "iso_code": "anj",
            "name": "Anor",
            "speakers": 386,
            "risk": "at_risk",
            "series_type": "scenario",
            "family_root": "Lower Sepik-Ramu",
            "latitude_map": -4.98,
            "longitude_map": 144.8,
            "vitality_group": "serious",
            "vitality_reason": "-3.0%/yr 2028→2029, 386 speakers → at_risk",
            "trend_confidence": "high"
        },
        {
            "iso_code": "ant",
            "name": "Antakirinya",
            "speakers": 37,
            "risk": "critical",
            "series_type": "scenario",
            "family_root": "Pama-Nyungan",
            "latitude_map": -27.052452,
            "longitude_map": 134.400751,
            "vitality_group": "serious",
            "vitality_reason": "-5.1%/yr 2028→2029, 37 speakers → critical",
            "trend_confidence": "high"
        },
        {
            "iso_code": "adg",
            "name": "Antekerrepenh",
            "speakers": null,
            "risk": "lost",
            "series_type": "scenario",
            "family_root": "Pama-Nyungan",
            "latitude_map": -23.231896,
            "longitude_map": 139.971559,
            "vitality_group": "gone",
            "vitality_reason": "-6.4%/yr 2006→2018, 5 speakers → lost",
            "trend_confidence": "high"
        },
        {
            "iso_code": "aui",
            "name": "Anuki",
            "speakers": 493,
            "risk": "vulnerable",
            "series_type": "scenario",
            "family_root": "Austronesian",
            "latitude_map": -9.6522,
            "longitude_map": 149.7656,
            "vitality_group": "watch",
            "vitality_reason": "-3.0%/yr 2028→2029, 493 speakers → vulnerable",
            "trend_confidence": "high"
        },
        {
            "iso_code": "auq",
            "name": "Anus",
            "speakers": 275,
            "risk": "vulnerable",
            "series_type": "scenario",
            "family_root": "Austronesian",
            "latitude_map": -2.1268,
            "longitude_map": 139.5126,
            "vitality_group": "watch",
            "vitality_reason": "-2.8%/yr 2028→2029, 275 speakers → vulnerable",
            "trend_confidence": "high"
        },
        {
            "iso_code": "aud",
            "name": "Anuta",
            "speakers": 292,
            "risk": "vulnerable",
            "series_type": "scenario",
            "family_root": "Austronesian",
            "latitude_map": -11.611,
            "longitude_map": 169.85,
            "vitality_group": "watch",
            "vitality_reason": "-3.0%/yr 2028→2029, 292 speakers → vulnerable",
            "trend_confidence": "high"
        },
        {
            "iso_code": "aor",
            "name": "Aore",
            "speakers": null,
            "risk": "unknown",
            "series_type": "scenario",
            "family_root": "Austronesian",
            "latitude_map": -15.58797,
            "longitude_map": 167.211754,
            "vitality_group": "unknown",
            "vitality_reason": "no speaker data",
            "trend_confidence": "low"
        },
        {
            "iso_code": "kbx",
            "name": "Ap Ma",
            "speakers": 5582,
            "risk": "vulnerable",
            "series_type": "scenario",
            "family_root": "Isolate",
            "latitude_map": -4.35,
            "longitude_map": 144.09,
            "vitality_group": "watch",
            "vitality_reason": "-3.0%/yr 2028→2029, 5582 speakers → vulnerable",
            "trend_confidence": "high"
        },
        {
            "iso_code": "apy",
            "name": "Apalaí",
            "speakers": 272,
            "risk": "at_risk",
            "series_type": "scenario",
            "family_root": "Cariban",
            "latitude_map": 1.2084,
            "longitude_map": -55.1074,
            "vitality_group": "serious",
            "vitality_reason": "-3.2%/yr 2028→2029, 272 speakers → at_risk",
            "trend_confidence": "high"
        },
        {
            "iso_code": "apt",
            "name": "Apatani",
            "speakers": 12981,
            "risk": "vulnerable",
            "series_type": "scenario",
            "family_root": "Sino-Tibetan",
            "latitude_map": 27.5228,
            "longitude_map": 93.8177,
            "vitality_group": "watch",
            "vitality_reason": "-1.5%/yr 2028→2029, 12981 speakers → vulnerable",
            "trend_confidence": "high"
        },
        {
            "iso_code": "api",
            "name": "Apiaká",
            "speakers": null,
            "risk": "unknown",
            "series_type": "scenario",
            "family_root": "Tupian",
            "latitude_map": -11.1519,
            "longitude_map": -57.3113,
            "vitality_group": "unknown",
            "vitality_reason": "no speaker data",
            "trend_confidence": "low"
        },
        {
            "iso_code": "apn",
            "name": "Apinayé",
            "speakers": null,
            "risk": "lost",
            "series_type": "scenario",
            "family_root": "Jean",
            "latitude_map": -5.5,
            "longitude_map": -48.0,
            "vitality_group": "gone",
            "vitality_reason": "+0.0%/yr 2023→2024, 2 speakers → lost",
            "trend_confidence": "high"
        },
        {
            "iso_code": "apu",
            "name": "Apuriná",
            "speakers": 343,
            "risk": "at_risk",
            "series_type": "scenario",
            "family_root": "Arawakan",
            "latitude_map": -9.0,
            "longitude_map": -67.0,
            "vitality_group": "serious",
            "vitality_reason": "-3.1%/yr 2028→2029, 343 speakers → at_risk",
            "trend_confidence": "high"
        },
        {
            "iso_code": "apx",
            "name": "Aputai",
            "speakers": 129,
            "risk": "at_risk",
            "series_type": "scenario",
            "family_root": "Austronesian",
            "latitude_map": -7.6511,
            "longitude_map": 126.4086,
            "vitality_group": "serious",
            "vitality_reason": "-3.0%/yr 2028→2029, 129 speakers → at_risk",
            "trend_confidence": "high"
        },
        {
            "iso_code": "ard",
            "name": "Arabana-Wangkangurru",
            "speakers": null,
            "risk": "unknown",
            "series_type": "scenario",
            "family_root": "Pama-Nyungan",
            "latitude_map": -31.305219,
            "longitude_map": 138.428335,
            "vitality_group": "unknown",
            "vitality_reason": "no speaker data",
            "trend_confidence": "low"
        },
        {
            "iso_code": "arl",
            "name": "Arabela",
            "speakers": 22,
            "risk": "critical",
            "series_type": "scenario",
            "family_root": "Zaparoan",
            "latitude_map": -1.5818,
            "longitude_map": -75.3881,
            "vitality_group": "serious",
            "vitality_reason": "-4.3%/yr 2028→2029, 22 speakers → critical",
            "trend_confidence": "high"
        },
        {
            "iso_code": "arg",
            "name": "Aragonese",
            "speakers": 4294,
            "risk": "vulnerable",
            "series_type": "scenario",
            "family_root": "Indo-European",
            "latitude_map": 42.2935,
            "longitude_map": -0.4394,
            "vitality_group": "watch",
            "vitality_reason": "-3.0%/yr 2028→2029, 4294 speakers → vulnerable",
            "trend_confidence": "high"
        },
        {
            "iso_code": "akr",
            "name": "Araki",
            "speakers": 11,
            "risk": "critical",
            "series_type": "scenario",
            "family_root": "Austronesian",
            "latitude_map": -15.666667,
            "longitude_map": 166.916667,
            "vitality_group": "serious",
            "vitality_reason": "-8.3%/yr 2028→2029, 11 speakers → critical",
            "trend_confidence": "high"
        },
        {
            "iso_code": "aaf",
            "name": "Aranadan",
            "speakers": 172,
            "risk": "vulnerable",
            "series_type": "scenario",
            "family_root": "Dravidian",
            "latitude_map": 11.35,
            "longitude_map": 75.8,
            "vitality_group": "watch",
            "vitality_reason": "-2.8%/yr 2028→2029, 172 speakers → vulnerable",
            "trend_confidence": "high"
        },
        {
            "iso_code": "aro",
            "name": "Araona",
            "speakers": 120,
            "risk": "at_risk",
            "series_type": "scenario",
            "family_root": "Pano-Tacanan",
            "latitude_map": -12.4473,
            "longitude_map": -68.1372,
            "vitality_group": "serious",
            "vitality_reason": "-3.2%/yr 2028→2029, 120 speakers → at_risk",
            "trend_confidence": "high"
        },
        {
            "iso_code": "arp",
            "name": "Arapaho",
            "speakers": 734,
            "risk": "at_risk",
            "series_type": "scenario",
            "family_root": "Algic",
            "latitude_map": 43.0139,
            "longitude_map": -108.8214,
            "vitality_group": "serious",
            "vitality_reason": "-6.0%/yr 2028→2029, 734 speakers → at_risk",
            "trend_confidence": "high"
        },
        {
            "iso_code": "arj",
            "name": "Arapaso",
            "speakers": null,
            "risk": "unknown",
            "series_type": "scenario",
            "family_root": "Tucanoan",
            "latitude_map": 0.0,
            "longitude_map": -66.0,
            "vitality_group": "unknown",
            "vitality_reason": "no speaker data",
            "trend_confidence": "low"
        },
        {
            "iso_code": "axg",
            "name": "Arára of Mato Grosso",
            "speakers": null,
            "risk": "unknown",
            "series_type": "scenario",
            "family_root": "Isolate",
            "latitude_map": -9.777,
            "longitude_map": -59.398,
            "vitality_group": "unknown",
            "vitality_reason": "no speaker data",
            "trend_confidence": "low"
        },
        {
            "iso_code": "awt",
            "name": "Araweté",
            "speakers": 291,
            "risk": "at_risk",
            "series_type": "scenario",
            "family_root": "Tupian",
            "latitude_map": -5.1347,
            "longitude_map": -52.3388,
            "vitality_group": "serious",
            "vitality_reason": "-3.0%/yr 2028→2029, 291 speakers → at_risk",
            "trend_confidence": "high"
        },
        {
            "iso_code": "awm",
            "name": "Arawum",
            "speakers": 54,
            "risk": "at_risk",
            "series_type": "scenario",
            "family_root": "Trans-New Guinea",
            "latitude_map": -5.5093,
            "longitude_map": 145.8929,
            "vitality_group": "serious",
            "vitality_reason": "-5.3%/yr 2028→2029, 54 speakers → at_risk",
            "trend_confidence": "high"
        },
        {
            "iso_code": "aae",
            "name": "Arbëreshë",
            "speakers": 46361,
            "risk": "vulnerable",
            "series_type": "scenario",
            "family_root": "Indo-European",
            "latitude_map": 40.9321,
            "longitude_map": 14.8645,
            "vitality_group": "watch",
            "vitality_reason": "-1.5%/yr 2028→2029, 46361 speakers → vulnerable",
            "trend_confidence": "high"
        },
        {
            "iso_code": "arv",
            "name": "Arbore",
            "speakers": 3814,
            "risk": "at_risk",
            "series_type": "scenario",
            "family_root": "Afro-Asiatic",
            "latitude_map": 5.0,
            "longitude_map": 36.75,
            "vitality_group": "serious",
            "vitality_reason": "-3.0%/yr 2028→2029, 3814 speakers → at_risk",
            "trend_confidence": "high"
        },
        {
            "iso_code": "aqc",
            "name": "Archi",
            "speakers": 1062,
            "risk": "at_risk",
            "series_type": "scenario",
            "family_root": "Northeast Caucasian",
            "latitude_map": 41.9839,
            "longitude_map": 46.8127,
            "vitality_group": "serious",
            "vitality_reason": "-3.0%/yr 2028→2029, 1062 speakers → at_risk",
            "trend_confidence": "high"
        },
        {
            "iso_code": "aem",
            "name": "Arem",
            "speakers": 37,
            "risk": "critical",
            "series_type": "scenario",
            "family_root": "Austro-Asiatic",
            "latitude_map": 18.1771,
            "longitude_map": 105.3369,
            "vitality_group": "serious",
            "vitality_reason": "-5.1%/yr 2028→2029, 37 speakers → critical",
            "trend_confidence": "high"
        },
        {
            "iso_code": "aed",
            "name": "Argentine Sign Language",
            "speakers": null,
            "risk": "unknown",
            "series_type": "scenario",
            "family_root": "Not recorded",
            "latitude_map": -34.8,
            "longitude_map": -59.18,
            "vitality_group": "unknown",
            "vitality_reason": "no speaker data",
            "trend_confidence": "low"
        },
        {
            "iso_code": "agj",
            "name": "Argobba",
            "speakers": 10070,
            "risk": "vulnerable",
            "series_type": "scenario",
            "family_root": "Afro-Asiatic",
            "latitude_map": 10.5958,
            "longitude_map": 39.9792,
            "vitality_group": "watch",
            "vitality_reason": "-1.5%/yr 2028→2029, 10070 speakers → vulnerable",
            "trend_confidence": "high"
        },
        {
            "iso_code": "agf",
            "name": "Arguni",
            "speakers": 129,
            "risk": "at_risk",
            "series_type": "scenario",
            "family_root": "Austronesian",
            "latitude_map": -2.6632,
            "longitude_map": 132.5418,
            "vitality_group": "serious",
            "vitality_reason": "-3.0%/yr 2028→2029, 129 speakers → at_risk",
            "trend_confidence": "high"
        },
        {
            "iso_code": "aqr",
            "name": "Arhâ",
            "speakers": 26,
            "risk": "critical",
            "series_type": "scenario",
            "family_root": "Austronesian",
            "latitude_map": -21.3047,
            "longitude_map": 165.0146,
            "vitality_group": "serious",
            "vitality_reason": "-3.7%/yr 2028→2029, 26 speakers → critical",
            "trend_confidence": "high"
        },
        {
            "iso_code": "aok",
            "name": "Arhö",
            "speakers": 46,
            "risk": "critical",
            "series_type": "scenario",
            "family_root": "Austronesian",
            "latitude_map": -21.274,
            "longitude_map": 165.0503,
            "vitality_group": "serious",
            "vitality_reason": "-4.2%/yr 2028→2029, 46 speakers → critical",
            "trend_confidence": "high"
        },
        {
            "iso_code": "aac",
            "name": "Ari",
            "speakers": 37,
            "risk": "critical",
            "series_type": "scenario",
            "family_root": "Trans-New Guinea",
            "latitude_map": -8.0,
            "longitude_map": 142.4,
            "vitality_group": "serious",
            "vitality_reason": "-5.1%/yr 2028→2029, 37 speakers → critical",
            "trend_confidence": "high"
        },
        {
            "iso_code": "aea",
            "name": "Ariba",
            "speakers": null,
            "risk": "lost",
            "series_type": "scenario",
            "family_root": "Pama-Nyungan",
            "latitude_map": -17.120653,
            "longitude_map": 141.833361,
            "vitality_group": "gone",
            "vitality_reason": "+0.0%/yr 2023→2024, 2 speakers → lost",
            "trend_confidence": "high"
        },
        {
            "iso_code": "aai",
            "name": "Arifama-Miniafia",
            "speakers": 2980,
            "risk": "vulnerable",
            "series_type": "scenario",
            "family_root": "Austronesian",
            "latitude_map": -9.51824,
            "longitude_map": 149.349884,
            "vitality_group": "watch",
            "vitality_reason": "-3.0%/yr 2028→2029, 2980 speakers → vulnerable",
            "trend_confidence": "high"
        },
        {
            "iso_code": "ark",
            "name": "Arikapú",
            "speakers": null,
            "risk": "lost",
            "series_type": "scenario",
            "family_root": "Jabutian",
            "latitude_map": -12.0527,
            "longitude_map": -64.7259,
            "vitality_group": "gone",
            "vitality_reason": "+0.0%/yr 2023→2024, 1 speakers → lost",
            "trend_confidence": "high"
        },
        {
            "iso_code": "ari",
            "name": "Arikara",
            "speakers": 15,
            "risk": "critical",
            "series_type": "scenario",
            "family_root": "Caddoan",
            "latitude_map": 47.648,
            "longitude_map": -101.8327,
            "vitality_group": "serious",
            "vitality_reason": "-6.2%/yr 2028→2029, 15 speakers → critical",
            "trend_confidence": "high"
        },
        {
            "iso_code": "rup",
            "name": "Aromanian",
            "speakers": 300557,
            "risk": "vulnerable",
            "series_type": "scenario",
            "family_root": "Indo-European",
            "latitude_map": 40.2292,
            "longitude_map": 21.1376,
            "vitality_group": "watch",
            "vitality_reason": "-3.0%/yr 2028→2029, 300557 speakers → vulnerable",
            "trend_confidence": "high"
        },
        {
            "iso_code": "atz",
            "name": "Arta",
            "speakers": null,
            "risk": "lost",
            "series_type": "scenario",
            "family_root": "Austronesian",
            "latitude_map": 16.216,
            "longitude_map": 121.599,
            "vitality_group": "gone",
            "vitality_reason": "-9.1%/yr 2024→2025, 10 speakers → lost",
            "trend_confidence": "high"
        },
        {
            "iso_code": "alx",
            "name": "Aru",
            "speakers": 232,
            "risk": "vulnerable",
            "series_type": "scenario",
            "family_root": "Torricelli",
            "latitude_map": -3.457063,
            "longitude_map": 142.539093,
            "vitality_group": "watch",
            "vitality_reason": "-2.9%/yr 2028→2029, 232 speakers → vulnerable",
            "trend_confidence": "high"
        },
        {
            "iso_code": "arx",
            "name": "Aruá",
            "speakers": null,
            "risk": "lost",
            "series_type": "scenario",
            "family_root": "Tupian",
            "latitude_map": -12.0285,
            "longitude_map": -64.7094,
            "vitality_group": "gone",
            "vitality_reason": "+0.0%/yr 2023→2024, 5 speakers → lost",
            "trend_confidence": "high"
        },
        {
            "iso_code": "msy",
            "name": "Aruamu",
            "speakers": 4594,
            "risk": "vulnerable",
            "series_type": "scenario",
            "family_root": "Lower Sepik-Ramu",
            "latitude_map": -4.29,
            "longitude_map": 144.84,
            "vitality_group": "watch",
            "vitality_reason": "-3.0%/yr 2028→2029, 4594 speakers → vulnerable",
            "trend_confidence": "high"
        },
        {
            "iso_code": "aur",
            "name": "Aruek",
            "speakers": 527,
            "risk": "at_risk",
            "series_type": "scenario",
            "family_root": "Torricelli",
            "latitude_map": -3.38,
            "longitude_map": 142.72,
            "vitality_group": "serious",
            "vitality_reason": "-3.1%/yr 2028→2029, 527 speakers → at_risk",
            "trend_confidence": "high"
        },
        {
            "iso_code": "lsr",
            "name": "Aruop",
            "speakers": 601,
            "risk": "at_risk",
            "series_type": "scenario",
            "family_root": "Torricelli",
            "latitude_map": -3.46,
            "longitude_map": 142.48,
            "vitality_group": "serious",
            "vitality_reason": "-3.1%/yr 2028→2029, 601 speakers → at_risk",
            "trend_confidence": "high"
        },
        {
            "iso_code": "atx",
            "name": "Arutani",
            "speakers": null,
            "risk": "lost",
            "series_type": "scenario",
            "family_root": "Isolate",
            "latitude_map": 4.07,
            "longitude_map": -62.87,
            "vitality_group": "gone",
            "vitality_reason": "+0.0%/yr 2023→2024, 1 speakers → lost",
            "trend_confidence": "high"
        },
        {
            "iso_code": "aat",
            "name": "Arvanitika",
            "speakers": 46361,
            "risk": "vulnerable",
            "series_type": "scenario",
            "family_root": "Indo-European",
            "latitude_map": 38.1863,
            "longitude_map": 23.6096,
            "vitality_group": "watch",
            "vitality_reason": "-1.5%/yr 2028→2029, 46361 speakers → vulnerable",
            "trend_confidence": "high"
        },
        {
            "iso_code": "asz",
            "name": "As",
            "speakers": null,
            "risk": "lost",
            "series_type": "scenario",
            "family_root": "Austronesian",
            "latitude_map": -0.742007,
            "longitude_map": 131.683156,
            "vitality_group": "gone",
            "vitality_reason": "+0.0%/yr 2023→2024, 6 speakers → lost",
            "trend_confidence": "high"
        },
        {
            "iso_code": "seo",
            "name": "Asaba",
            "speakers": 125,
            "risk": "vulnerable",
            "series_type": "scenario",
            "family_root": "Isolate",
            "latitude_map": -5.0526,
            "longitude_map": 141.9818,
            "vitality_group": "watch",
            "vitality_reason": "-2.3%/yr 2028→2029, 125 speakers → vulnerable",
            "trend_confidence": "high"
        },
        {
            "iso_code": "cni",
            "name": "Asháninka",
            "speakers": 25962,
            "risk": "vulnerable",
            "series_type": "scenario",
            "family_root": "Arawakan",
            "latitude_map": -10.733,
            "longitude_map": -73.75,
            "vitality_group": "watch",
            "vitality_reason": "-1.5%/yr 2028→2029, 25962 speakers → vulnerable",
            "trend_confidence": "high"
        },
        {
            "iso_code": "cpc, cjo, prq, cpu, cpy, cpb",
            "name": "Ashéninka",
            "speakers": 18544,
            "risk": "vulnerable",
            "series_type": "scenario",
            "family_root": "Arawakan",
            "latitude_map": -10.933333,
            "longitude_map": -75.266667,
            "vitality_group": "watch",
            "vitality_reason": "-1.5%/yr 2028→2029, 18544 speakers → vulnerable",
            "trend_confidence": "high"
        },
        {
            "iso_code": "adi-ash",
            "name": "Ashing",
            "speakers": 927,
            "risk": "vulnerable",
            "series_type": "scenario",
            "family_root": "Sino-Tibetan",
            "latitude_map": 29.010278,
            "longitude_map": 94.901944,
            "vitality_group": "watch",
            "vitality_reason": "-1.5%/yr 2028→2029, 927 speakers → vulnerable",
            "trend_confidence": "high"
        },
        {
            "iso_code": "ask",
            "name": "Ashkun",
            "speakers": 3006,
            "risk": "at_risk",
            "series_type": "scenario",
            "family_root": "Indo-European",
            "latitude_map": 34.9973,
            "longitude_map": 71.0746,
            "vitality_group": "serious",
            "vitality_reason": "-3.0%/yr 2028→2029, 3006 speakers → at_risk",
            "trend_confidence": "high"
        },
        {
            "iso_code": "atn",
            "name": "Ashtiani",
            "speakers": 19564,
            "risk": "vulnerable",
            "series_type": "scenario",
            "family_root": "Indo-European",
            "latitude_map": 37.75,
            "longitude_map": 48.68,
            "vitality_group": "watch",
            "vitality_reason": "-1.5%/yr 2028→2029, 19564 speakers → vulnerable",
            "trend_confidence": "high"
        },
        {
            "iso_code": "08a",
            "name": "Aširat Northeastern Neo-Aramaic",
            "speakers": null,
            "risk": "unknown",
            "series_type": "scenario",
            "family_root": "Afro-Asiatic",
            "latitude_map": 37.2229,
            "longitude_map": 44.67,
            "vitality_group": "unknown",
            "vitality_reason": "no speaker data",
            "trend_confidence": "low"
        },
        {
            "iso_code": "sjg",
            "name": "Assangori",
            "speakers": 21790,
            "risk": "vulnerable",
            "series_type": "scenario",
            "family_root": "Taman",
            "latitude_map": 13.75,
            "longitude_map": 21.5,
            "vitality_group": "watch",
            "vitality_reason": "-1.5%/yr 2028→2029, 21790 speakers → vulnerable",
            "trend_confidence": "high"
        },
        {
            "iso_code": "asb",
            "name": "Assiniboine",
            "speakers": 64,
            "risk": "at_risk",
            "series_type": "scenario",
            "family_root": "Siouan",
            "latitude_map": 48.4466,
            "longitude_map": -114.8783,
            "vitality_group": "serious",
            "vitality_reason": "-3.0%/yr 2028→2029, 64 speakers → at_risk",
            "trend_confidence": "high"
        },
        {
            "iso_code": "ast",
            "name": "Asturian",
            "speakers": 101994,
            "risk": "vulnerable",
            "series_type": "scenario",
            "family_root": "Indo-European",
            "latitude_map": 43.25,
            "longitude_map": -6.0,
            "vitality_group": "watch",
            "vitality_reason": "-1.5%/yr 2028→2029, 101994 speakers → vulnerable",
            "trend_confidence": "high"
        },
        {
            "iso_code": "aua",
            "name": "Asumboa",
            "speakers": null,
            "risk": "lost",
            "series_type": "scenario",
            "family_root": "Austronesian",
            "latitude_map": -11.2982,
            "longitude_map": 166.4868,
            "vitality_group": "gone",
            "vitality_reason": "+0.0%/yr 2023→2024, 10 speakers → lost",
            "trend_confidence": "high"
        },
        {
            "iso_code": "zoo",
            "name": "Asunción Mixtepec Zapotec",
            "speakers": 93,
            "risk": "vulnerable",
            "series_type": "scenario",
            "family_root": "Otomanguean",
            "latitude_map": 16.88,
            "longitude_map": -96.87,
            "vitality_group": "watch",
            "vitality_reason": "-1.1%/yr 2028→2029, 93 speakers → vulnerable",
            "trend_confidence": "high"
        },
        {
            "iso_code": "asr",
            "name": "Asuri",
            "speakers": 6011,
            "risk": "at_risk",
            "series_type": "scenario",
            "family_root": "Austro-Asiatic",
            "latitude_map": 22.4719,
            "longitude_map": 84.9023,
            "vitality_group": "serious",
            "vitality_reason": "-3.0%/yr 2028→2029, 6011 speakers → at_risk",
            "trend_confidence": "high"
        },
        {
            "iso_code": "asu",
            "name": "Asuriní do Tocantins",
            "speakers": 330,
            "risk": "vulnerable",
            "series_type": "scenario",
            "family_root": "Tupian",
            "latitude_map": -3.5,
            "longitude_map": -50.0,
            "vitality_group": "watch",
            "vitality_reason": "-2.9%/yr 2028→2029, 330 speakers → vulnerable",
            "trend_confidence": "high"
        },
        {
            "iso_code": "asn",
            "name": "Asuriní of Xingú",
            "speakers": 94,
            "risk": "at_risk",
            "series_type": "scenario",
            "family_root": "Tupian",
            "latitude_map": -3.9095,
            "longitude_map": -52.4707,
            "vitality_group": "serious",
            "vitality_reason": "-3.1%/yr 2028→2029, 94 speakers → at_risk",
            "trend_confidence": "high"
        },
        {
            "iso_code": "atm",
            "name": "Ata",
            "speakers": null,
            "risk": "lost",
            "series_type": "scenario",
            "family_root": "Austronesian",
            "latitude_map": 9.6081,
            "longitude_map": 122.9155,
            "vitality_group": "gone",
            "vitality_reason": "+0.0%/yr 2023→2024, 4 speakers → lost",
            "trend_confidence": "high"
        },
        {
            "iso_code": "amz",
            "name": "Atampaya",
            "speakers": null,
            "risk": "lost",
            "series_type": "scenario",
            "family_root": "Pama-Nyungan",
            "latitude_map": -11.482111,
            "longitude_map": 142.374378,
            "vitality_group": "gone",
            "vitality_reason": "+0.0%/yr 2023→2024, 4 speakers → lost",
            "trend_confidence": "high"
        },
        {
            "iso_code": "aph",
            "name": "Athpariya",
            "speakers": 1571,
            "risk": "vulnerable",
            "series_type": "scenario",
            "family_root": "Sino-Tibetan",
            "latitude_map": 26.952,
            "longitude_map": 87.3399,
            "vitality_group": "watch",
            "vitality_reason": "-3.0%/yr 2028→2029, 1571 speakers → vulnerable",
            "trend_confidence": "high"
        },
        {
            "iso_code": "atk",
            "name": "Ati (Philippines)",
            "speakers": 897,
            "risk": "vulnerable",
            "series_type": "scenario",
            "family_root": "Austronesian",
            "latitude_map": 11.15,
            "longitude_map": 122.51,
            "vitality_group": "watch",
            "vitality_reason": "-2.9%/yr 2028→2029, 897 speakers → vulnerable",
            "trend_confidence": "high"
        },
        {
            "iso_code": "ato",
            "name": "Atong (Cameroon)",
            "speakers": 3894,
            "risk": "vulnerable",
            "series_type": "scenario",
            "family_root": "Niger-Congo",
            "latitude_map": 6.044967,
            "longitude_map": 9.748787,
            "vitality_group": "watch",
            "vitality_reason": "-1.5%/yr 2028→2029, 3894 speakers → vulnerable",
            "trend_confidence": "high"
        },
        {
            "iso_code": "aot",
            "name": "Atong (India)",
            "speakers": null,
            "risk": "unknown",
            "series_type": "scenario",
            "family_root": "Sino-Tibetan",
            "latitude_map": 25.2844,
            "longitude_map": 91.1755,
            "vitality_group": "unknown",
            "vitality_reason": "no speaker data",
            "trend_confidence": "low"
        },
        {
            "iso_code": "atw",
            "name": "Atsugewi",
            "speakers": null,
            "risk": "unknown",
            "series_type": "scenario",
            "family_root": "Palaihnihan",
            "latitude_map": 40.75,
            "longitude_map": -121.0,
            "vitality_group": "unknown",
            "vitality_reason": "no speaker data",
            "trend_confidence": "low"
        },
        {
            "iso_code": "atj",
            "name": "Attikamek",
            "speakers": 2782,
            "risk": "vulnerable",
            "series_type": "scenario",
            "family_root": "Algic",
            "latitude_map": 47.2104,
            "longitude_map": -74.3827,
            "vitality_group": "watch",
            "vitality_reason": "-1.5%/yr 2028→2029, 2782 speakers → vulnerable",
            "trend_confidence": "high"
        },
        {
            "iso_code": "avt",
            "name": "Au",
            "speakers": 3607,
            "risk": "vulnerable",
            "series_type": "scenario",
            "family_root": "Torricelli",
            "latitude_map": -3.6,
            "longitude_map": 142.1,
            "vitality_group": "watch",
            "vitality_reason": "-3.0%/yr 2028→2029, 3607 speakers → vulnerable",
            "trend_confidence": "high"
        },
        {
            "iso_code": "aul",
            "name": "Aulua",
            "speakers": 644,
            "risk": "at_risk",
            "series_type": "scenario",
            "family_root": "Austronesian",
            "latitude_map": -16.36,
            "longitude_map": 167.7,
            "vitality_group": "serious",
            "vitality_reason": "-3.0%/yr 2028→2029, 644 speakers → at_risk",
            "trend_confidence": "high"
        },
        {
            "iso_code": "aux",
            "name": "Auré",
            "speakers": null,
            "risk": "unknown",
            "series_type": "scenario",
            "family_root": "Tupian",
            "latitude_map": -2.9649,
            "longitude_map": -46.2084,
            "vitality_group": "unknown",
            "vitality_reason": "no speaker data",
            "trend_confidence": "low"
        },
        {
            "iso_code": "aut",
            "name": "Austral",
            "speakers": 6870,
            "risk": "vulnerable",
            "series_type": "scenario",
            "family_root": "Austronesian",
            "latitude_map": -23.3775,
            "longitude_map": -149.4909,
            "vitality_group": "watch",
            "vitality_reason": "-3.0%/yr 2028→2029, 6870 speakers → vulnerable",
            "trend_confidence": "high"
        },
        {
            "iso_code": "asf",
            "name": "Australian Sign Language",
            "speakers": 5582,
            "risk": "vulnerable",
            "series_type": "scenario",
            "family_root": "Sign Language",
            "latitude_map": -35.3075,
            "longitude_map": 149.124417,
            "vitality_group": "watch",
            "vitality_reason": "-3.0%/yr 2028→2029, 5582 speakers → vulnerable",
            "trend_confidence": "high"
        },
        {
            "iso_code": "oci-auv",
            "name": "Auvergnat",
            "speakers": 139082,
            "risk": "vulnerable",
            "series_type": "scenario",
            "family_root": "Indo-European",
            "latitude_map": 45.1278,
            "longitude_map": 3.1311,
            "vitality_group": "watch",
            "vitality_reason": "-1.5%/yr 2028→2029, 139082 speakers → vulnerable",
            "trend_confidence": "high"
        },
        {
            "iso_code": "smf",
            "name": "Auwe",
            "speakers": 232,
            "risk": "vulnerable",
            "series_type": "scenario",
            "family_root": "Border",
            "latitude_map": -3.34,
            "longitude_map": 141.25,
            "vitality_group": "watch",
            "vitality_reason": "-2.9%/yr 2028→2029, 232 speakers → vulnerable",
            "trend_confidence": "high"
        },
        {
            "iso_code": "auu",
            "name": "Auye",
            "speakers": 301,
            "risk": "vulnerable",
            "series_type": "scenario",
            "family_root": "Trans-New Guinea",
            "latitude_map": -3.5627,
            "longitude_map": 135.9915,
            "vitality_group": "watch",
            "vitality_reason": "-2.9%/yr 2028→2029, 301 speakers → vulnerable",
            "trend_confidence": "high"
        },
        {
            "iso_code": "avv",
            "name": "Avá",
            "speakers": 12,
            "risk": "critical",
            "series_type": "scenario",
            "family_root": "Tupian",
            "latitude_map": -14.0847,
            "longitude_map": -48.0418,
            "vitality_group": "serious",
            "vitality_reason": "+0.0%/yr 2028→2029, 12 speakers → critical",
            "trend_confidence": "high"
        },
        {
            "iso_code": "tmb",
            "name": "Avava",
            "speakers": 649,
            "risk": "vulnerable",
            "series_type": "scenario",
            "family_root": "Austronesian",
            "latitude_map": -16.233418,
            "longitude_map": 167.470106,
            "vitality_group": "watch",
            "vitality_reason": "-1.5%/yr 2028→2029, 649 speakers → vulnerable",
            "trend_confidence": "high"
        },