{"year":2036,"language_count":3371,"languages":[{"iso_code":"knw","name":"!Xun","speakers":13346,"risk":"at_risk","series_type":"scenario","family_root":"Kx'a","latitude_map":-28.74358,"longitude_map":23.983154},{"iso_code":"bpk","name":"'Ôrôê","speakers":409,"risk":"at_risk","series_type":"scenario","family_root":"Austronesian","latitude_map":-21.4223,"longitude_map":165.4678},{"iso_code":"taa","name":"(Lower) Tanana","speakers":12,"risk":"at_risk","series_type":"scenario","family_root":"Athabaskan-Eyak-Tlingit","latitude_map":64.605,"longitude_map":-149.0625},{"iso_code":"hnh","name":"||Ani","speakers":694,"risk":"at_risk","series_type":"scenario","family_root":"Khoe","latitude_map":-18.6462,"longitude_map":22.1319},{"iso_code":"gnk","name":"||Gana","speakers":715,"risk":"at_risk","series_type":"scenario","family_root":"Khoe","latitude_map":-21.7824,"longitude_map":21.8971},{"iso_code":"gwj","name":"|Gui","speakers":1020,"risk":"at_risk","series_type":"scenario","family_root":"Khoe","latitude_map":-22.118722,"longitude_map":22.415146},{"iso_code":"con","name":"A'ingae","speakers":1251,"risk":"at_risk","series_type":"scenario","family_root":"Isolate","latitude_map":0.054639,"longitude_map":-77.409417},{"iso_code":"aas","name":"Aasáx","speakers":null,"risk":"lost","series_type":"scenario","family_root":"Afro-Asiatic","latitude_map":-5.1948,"longitude_map":37.738},{"iso_code":"abg","name":"Abaga","speakers":null,"risk":"lost","series_type":"scenario","family_root":"Nuclear Trans-New Guinea","latitude_map":-6.12,"longitude_map":145.66},{"iso_code":"abf","name":"Abai Sungai","speakers":173,"risk":"at_risk","series_type":"scenario","family_root":"Austronesian","latitude_map":5.587,"longitude_map":118.3695},{"iso_code":"aau","name":"Abau","speakers":4857,"risk":"at_risk","series_type":"scenario","family_root":"Sepik","latitude_map":-3.97,"longitude_map":141.32},{"iso_code":"abq","name":"Abaza","speakers":39938,"risk":"at_risk","series_type":"scenario","family_root":"Northwest Caucasian","latitude_map":44.1556,"longitude_map":41.9368},{"iso_code":"abp","name":"Abellen Ayta","speakers":2428,"risk":"at_risk","series_type":"scenario","family_root":"Austronesian","latitude_map":15.35,"longitude_map":120.457},{"iso_code":"bsa","name":"Abinomn","speakers":24,"risk":"at_risk","series_type":"scenario","family_root":"Isolate","latitude_map":-2.92,"longitude_map":138.89},{"iso_code":"aob","name":"Abom","speakers":null,"risk":"lost","series_type":"scenario","family_root":"Trans-New Guinea","latitude_map":-8.424996,"longitude_map":142.930359},{"iso_code":"ado","name":"Abu","speakers":1628,"risk":"at_risk","series_type":"scenario","family_root":"Lower Sepik-Ramu","latitude_map":-4.24,"longitude_map":144.47},{"iso_code":"aah","name":"Abu'","speakers":1776,"risk":"at_risk","series_type":"scenario","family_root":"Torricelli","latitude_map":-3.461612,"longitude_map":142.917031},{"iso_code":"abz","name":"Abui","speakers":11101,"risk":"at_risk","series_type":"scenario","family_root":"Timor-Alor-Pantar","latitude_map":-8.25,"longitude_map":124.666667},{"iso_code":"kgr","name":"Abun","speakers":2082,"risk":"at_risk","series_type":"scenario","family_root":"Isolate","latitude_map":-0.52,"longitude_map":132.19},{"iso_code":"aca","name":"Achagua","speakers":196,"risk":"at_risk","series_type":"scenario","family_root":"Arawakan","latitude_map":4.434,"longitude_map":-70.8837},{"iso_code":"guq","name":"Aché","speakers":95,"risk":"at_risk","series_type":"scenario","family_root":"Tupian","latitude_map":-25.25,"longitude_map":-55.166667},{"iso_code":"acz","name":"Acheron","speakers":16683,"risk":"at_risk","series_type":"scenario","family_root":"Niger-Congo","latitude_map":10.809,"longitude_map":30.2453},{"iso_code":"acr","name":"Achi'","speakers":43035,"risk":"at_risk","series_type":"scenario","family_root":"Mayan","latitude_map":15.0845,"longitude_map":-90.4888},{"iso_code":"acu","name":"Achuar","speakers":3777,"risk":"at_risk","series_type":"scenario","family_root":"Chicham family (Jivaroan)","latitude_map":-2.876318,"longitude_map":-77.586775},{"iso_code":"acv","name":"Achumawi","speakers":null,"risk":"lost","series_type":"scenario","family_root":"Palaihnihan","latitude_map":41.320107,"longitude_map":-121.129761},{"iso_code":"kjq","name":"Acoma-Laguna","speakers":2775,"risk":"at_risk","series_type":"scenario","family_root":"Keresan","latitude_map":34.8964,"longitude_map":-107.5816},{"iso_code":"ads","name":"Adamorobe Sign Language","speakers":24,"risk":"at_risk","series_type":"scenario","family_root":"Sign Language","latitude_map":5.859378,"longitude_map":-0.197951},{"iso_code":"adn","name":"Adang","speakers":4857,"risk":"at_risk","series_type":"scenario","family_root":"Timor-Alor-Pantar","latitude_map":-8.195,"longitude_map":124.484},{"iso_code":"tiu","name":"Adasen Itneg","speakers":2775,"risk":"at_risk","series_type":"scenario","family_root":"Austronesian","latitude_map":17.817292,"longitude_map":120.936869},{"iso_code":"adi","name":"Adi","speakers":83572,"risk":"at_risk","series_type":"scenario","family_root":"Sino-Tibetan","latitude_map":28.526319,"longitude_map":93.115814},{"iso_code":"dth","name":"Adithinngithigh","speakers":null,"risk":"lost","series_type":"scenario","family_root":"Pama-Nyungan","latitude_map":-12.887711,"longitude_map":141.717248},{"iso_code":"adt","name":"Adnyamathanha","speakers":69,"risk":"at_risk","series_type":"scenario","family_root":"Pama-Nyungan","latitude_map":-30.837141,"longitude_map":139.12154},{"iso_code":"adz","name":"Adzera","speakers":24106,"risk":"at_risk","series_type":"scenario","family_root":"Austronesian","latitude_map":-6.39,"longitude_map":146.29},{"iso_code":"aeq","name":"Aer","speakers":139,"risk":"at_risk","series_type":"scenario","family_root":"Indo-European","latitude_map":25.25,"longitude_map":69.03},{"iso_code":"aft","name":"Afitti","speakers":2775,"risk":"at_risk","series_type":"scenario","family_root":"Nyimang","latitude_map":12.13869,"longitude_map":30.181732},{"iso_code":"ulf","name":"Afra","speakers":80,"risk":"at_risk","series_type":"scenario","family_root":"Isolate","latitude_map":-3.5449,"longitude_map":140.7499},{"iso_code":"5qc","name":"Aftari","speakers":417,"risk":"at_risk","series_type":"scenario","family_root":"Indo-European","latitude_map":35.36,"longitude_map":53.7},{"iso_code":"avo","name":"Agavotaguerra","speakers":null,"risk":"lost","series_type":"scenario","family_root":"Arawakan","latitude_map":-13.3,"longitude_map":-53.44},{"iso_code":"gtu","name":"Aghu-Tharnggala","speakers":null,"risk":"lost","series_type":"scenario","family_root":"Pama-Nyungan","latitude_map":-15.117299,"longitude_map":145.810382},{"iso_code":"agx","name":"Aghul","speakers":6245,"risk":"at_risk","series_type":"scenario","family_root":"Northeast Caucasian","latitude_map":41.7518,"longitude_map":47.6875},{"iso_code":"aif","name":"Agi","speakers":465,"risk":"at_risk","series_type":"scenario","family_root":"Torricelli","latitude_map":-3.49,"longitude_map":142.39},{"iso_code":"agr","name":"Aguaruna","speakers":45877,"risk":"at_risk","series_type":"scenario","family_root":"Chicham family (Jivaroan)","latitude_map":-4.3464,"longitude_map":-77.8271},{"iso_code":"aug","name":"Aguna","speakers":2408,"risk":"at_risk","series_type":"scenario","family_root":"Niger-Congo","latitude_map":7.348379,"longitude_map":1.933201},{"iso_code":"wmi","name":"Agwamin","speakers":null,"risk":"lost","series_type":"scenario","family_root":"Pama-Nyungan","latitude_map":-17.833869,"longitude_map":144.235037},{"iso_code":"ahn","name":"Àhàn","speakers":208,"risk":"at_risk","series_type":"scenario","family_root":"Niger-Congo","latitude_map":7.762,"longitude_map":5.724},{"iso_code":"aht","name":"Ahtna","speakers":14,"risk":"at_risk","series_type":"scenario","family_root":"Athabaskan-Eyak-Tlingit","latitude_map":62.7547,"longitude_map":-144.3164},{"iso_code":"tba","name":"Aikanã","speakers":157,"risk":"at_risk","series_type":"scenario","family_root":"Isolate","latitude_map":-12.651,"longitude_map":-60.3918},{"iso_code":"ymo","name":"Aiku","speakers":568,"risk":"at_risk","series_type":"scenario","family_root":"Torricelli","latitude_map":-3.51,"longitude_map":142.46},{"iso_code":"ail","name":"Aimele","speakers":97,"risk":"at_risk","series_type":"scenario","family_root":"Trans-New Guinea","latitude_map":-6.751896,"longitude_map":142.745361},{"iso_code":"aim","name":"Aimol","speakers":1832,"risk":"at_risk","series_type":"scenario","family_root":"Sino-Tibetan","latitude_map":24.4971,"longitude_map":93.6145},{"iso_code":"aic","name":"Ainbai","speakers":76,"risk":"at_risk","series_type":"scenario","family_root":"Border","latitude_map":-3.1,"longitude_map":141.2},{"iso_code":"aib","name":"Ainu (China)","speakers":4163,"risk":"at_risk","series_type":"scenario","family_root":"Turkic","latitude_map":43.843,"longitude_map":87.633},{"iso_code":"ain","name":"Ainu (Japan)","speakers":null,"risk":"lost","series_type":"scenario","family_root":"Isolate","latitude_map":47.3983,"longitude_map":142.2949},{"iso_code":"aki","name":"Aiome","speakers":430,"risk":"at_risk","series_type":"scenario","family_root":"Lower Sepik-Ramu","latitude_map":-5.13,"longitude_map":144.76},{"iso_code":"mmq","name":"Aisi","speakers":173,"risk":"at_risk","series_type":"scenario","family_root":"Trans-New Guinea","latitude_map":-5.405093,"longitude_map":145.175755},{"iso_code":"nfl","name":"Äiwoo","speakers":6611,"risk":"at_risk","series_type":"scenario","family_root":"Austronesian","latitude_map":-10.303377,"longitude_map":166.306967},{"iso_code":"aja","name":"Aja","speakers":139,"risk":"at_risk","series_type":"scenario","family_root":"Kresh-Aja","latitude_map":8.6136,"longitude_map":25.2465},{"iso_code":"muc","name":"Ajumbu","speakers":173,"risk":"at_risk","series_type":"scenario","family_root":"Niger-Congo","latitude_map":6.5391,"longitude_map":10.238567},{"iso_code":"akq","name":"Ak","speakers":19,"risk":"at_risk","series_type":"scenario","family_root":"Sepik","latitude_map":-3.6093,"longitude_map":141.6604},{"iso_code":"soh","name":"Aka","speakers":381,"risk":"at_risk","series_type":"scenario","family_root":"Eastern Jebel","latitude_map":11.0112,"longitude_map":34.2333},{"iso_code":"akm","name":"Aka-Bo","speakers":null,"risk":"lost","series_type":"scenario","family_root":"Great Andamanese","latitude_map":13.270513,"longitude_map":92.837538},{"iso_code":"ack","name":"Aka-Kora","speakers":null,"risk":"lost","series_type":"scenario","family_root":"Great Andamanese","latitude_map":13.390518,"longitude_map":93.040969},{"iso_code":"knj","name":"Akateko","speakers":3866,"risk":"at_risk","series_type":"scenario","family_root":"Mayan","latitude_map":15.833333,"longitude_map":-91.833333},{"iso_code":"aik","name":"Ake","speakers":834,"risk":"at_risk","series_type":"scenario","family_root":"Niger-Congo","latitude_map":8.94748,"longitude_map":8.835342},{"iso_code":"aeu","name":"Akeu","speakers":3469,"risk":"at_risk","series_type":"scenario","family_root":"Sino-Tibetan","latitude_map":21.5833,"longitude_map":101.0166},{"iso_code":"akv","name":"Akhvakh","speakers":3469,"risk":"at_risk","series_type":"scenario","family_root":"Northeast Caucasian","latitude_map":42.472,"longitude_map":46.3238},{"iso_code":"sia","name":"Akkala Saami","speakers":null,"risk":"lost","series_type":"scenario","family_root":"Uralic","latitude_map":67.5809,"longitude_map":31.668},{"iso_code":"miw","name":"Akoye","speakers":555,"risk":"at_risk","series_type":"scenario","family_root":"Trans-New Guinea","latitude_map":-7.814405,"longitude_map":145.675964},{"iso_code":"aku","name":"Akum","speakers":416,"risk":"at_risk","series_type":"scenario","family_root":"Niger-Congo","latitude_map":6.73,"longitude_map":9.9316},{"iso_code":"aqz","name":"Akuntsú","speakers":null,"risk":"lost","series_type":"scenario","family_root":"Tupian","latitude_map":-10.9,"longitude_map":-63.6},{"iso_code":"ako","name":"Akuriyo","speakers":null,"risk":"lost","series_type":"scenario","family_root":"Cariban","latitude_map":2.8442,"longitude_map":-55.7556},{"iso_code":"syy","name":"Al-Sayyid Bedouin Sign Language","speakers":104,"risk":"at_risk","series_type":"scenario","family_root":"Sign Language","latitude_map":30.377614,"longitude_map":34.886169},{"iso_code":"akz","name":"Alabama","speakers":191,"risk":"at_risk","series_type":"scenario","family_root":"Muskogean","latitude_map":30.7158,"longitude_map":-94.7028},{"iso_code":"nog-tat","name":"Alabugat Tatar","speakers":334,"risk":"at_risk","series_type":"scenario","family_root":"Turkic","latitude_map":43.59,"longitude_map":46.66},{"iso_code":"ala","name":"Alago","speakers":12512,"risk":"at_risk","series_type":"scenario","family_root":"Niger-Congo","latitude_map":8.110174,"longitude_map":9.14293},{"iso_code":"wbj","name":"Alagwa","speakers":3469,"risk":"at_risk","series_type":"scenario","family_root":"Afro-Asiatic","latitude_map":-5.5,"longitude_map":35.75},{"iso_code":"amp","name":"Alamblak","speakers":833,"risk":"at_risk","series_type":"scenario","family_root":"Sepik","latitude_map":-4.66,"longitude_map":143.32},{"iso_code":"alh","name":"Alawa","speakers":null,"risk":"lost","series_type":"scenario","family_root":"Gunwinyguan","latitude_map":-15.533919,"longitude_map":134.202823},{"iso_code":"zas","name":"Albarradas Zapotec","speakers":4588,"risk":"at_risk","series_type":"scenario","family_root":"Otomanguean","latitude_map":17.066921,"longitude_map":-96.20071},{"iso_code":"gah","name":"Alekano","speakers":20853,"risk":"at_risk","series_type":"scenario","family_root":"Trans-New Guinea","latitude_map":-6.086192,"longitude_map":145.386028},{"iso_code":"ale","name":"Aleut","speakers":null,"risk":"lost","series_type":"scenario","family_root":"Eskimo-Aleut","latitude_map":54.7212,"longitude_map":-164.4433},{"iso_code":"afk, afp","name":"Alfendio","speakers":528,"risk":"at_risk","series_type":"scenario","family_root":"Arafundi","latitude_map":-4.75,"longitude_map":143.64},{"iso_code":"cat-alg","name":"Algherese Catalan","speakers":20853,"risk":"at_risk","series_type":"scenario","family_root":"Indo-European","latitude_map":40.564318,"longitude_map":8.328667},{"iso_code":"1kt","name":"Alipur Sign Language","speakers":4587,"risk":"at_risk","series_type":"scenario","family_root":"Sign Language","latitude_map":13.486,"longitude_map":77.452},{"iso_code":"all","name":"Allar","speakers":243,"risk":"at_risk","series_type":"scenario","family_root":"Dravidian","latitude_map":11.108169,"longitude_map":76.166224},{"iso_code":"aid","name":"Alngith","speakers":null,"risk":"lost","series_type":"scenario","family_root":"Pama-Nyungan","latitude_map":-12.573105,"longitude_map":141.869154},{"iso_code":"qvm","name":"Alto Marañón Quechua","speakers":69567,"risk":"at_risk","series_type":"scenario","family_root":"Quechuan","latitude_map":-9.932,"longitude_map":-76.242},{"iso_code":"dia","name":"Alu","speakers":1304,"risk":"at_risk","series_type":"scenario","family_root":"Torricelli","latitude_map":-3.39,"longitude_map":142.25},{"iso_code":"xua","name":"Alu Kurumba","speakers":694,"risk":"at_risk","series_type":"scenario","family_root":"Dravidian","latitude_map":11.35,"longitude_map":76.8},{"iso_code":"alp","name":"Alune","speakers":10010,"risk":"at_risk","series_type":"scenario","family_root":"Austronesian","latitude_map":-3.0637,"longitude_map":128.3752},{"iso_code":"yna","name":"Aluo","speakers":13877,"risk":"at_risk","series_type":"scenario","family_root":"Sino-Tibetan","latitude_map":25.9368,"longitude_map":102.1839},{"iso_code":"ems","name":"Alutiiq","speakers":95,"risk":"at_risk","series_type":"scenario","family_root":"Eskimo-Aleut","latitude_map":57.793056,"longitude_map":-152.394167},{"iso_code":"alr","name":"Alutor","speakers":476,"risk":"at_risk","series_type":"scenario","family_root":"Chukotko-Kamchatkan","latitude_map":60.2016,"longitude_map":165.4238},{"iso_code":"avd","name":"Alviri-Vidari","speakers":null,"risk":"unknown","series_type":"scenario","family_root":"Indo-European","latitude_map":35.01,"longitude_map":50.38},{"iso_code":"aly","name":"Alyawarr","speakers":1388,"risk":"at_risk","series_type":"scenario","family_root":"Pama-Nyungan","latitude_map":-22.291522,"longitude_map":135.963709},{"iso_code":"amm","name":"Ama","speakers":375,"risk":"at_risk","series_type":"scenario","family_root":"Left May","latitude_map":-4.2,"longitude_map":141.66},{"iso_code":"amq","name":"Amahai","speakers":24,"risk":"at_risk","series_type":"scenario","family_root":"Austronesian","latitude_map":-3.3352,"longitude_map":128.9314},{"iso_code":"amc","name":"Amahuaca","speakers":131,"risk":"at_risk","series_type":"scenario","family_root":"Pano-Tacanan","latitude_map":-10.8764,"longitude_map":-72.29},{"iso_code":"aad","name":"Amal","speakers":269,"risk":"at_risk","series_type":"scenario","family_root":"Sepik","latitude_map":-4.05,"longitude_map":142.0},{"iso_code":"kzg, xug, ryn, okn, ams, tkn, yox","name":"Amami-North Okinawan","speakers":83413,"risk":"at_risk","series_type":"scenario","family_root":"Japonic","latitude_map":28.3672,"longitude_map":129.4958},{"iso_code":"amn","name":"Amanab","speakers":2428,"risk":"at_risk","series_type":"scenario","family_root":"Border","latitude_map":-3.55,"longitude_map":141.18},{"iso_code":"ama","name":"Amanayé","speakers":null,"risk":"lost","series_type":"scenario","family_root":"Tupian","latitude_map":-3.7327,"longitude_map":-49.1088},{"iso_code":"aie","name":"Amara","speakers":80,"risk":"at_risk","series_type":"scenario","family_root":"Austronesian","latitude_map":-5.51655,"longitude_map":148.765182},{"iso_code":"aaz","name":"Amarasi","speakers":58389,"risk":"at_risk","series_type":"scenario","family_root":"Austronesian","latitude_map":-10.08,"longitude_map":124.33},{"iso_code":"aew","name":"Ambakich","speakers":534,"risk":"at_risk","series_type":"scenario","family_root":"Lower Sepik-Ramu","latitude_map":-4.2,"longitude_map":144.25},{"iso_code":"ael","name":"Ambele","speakers":3003,"risk":"at_risk","series_type":"scenario","family_root":"Niger-Congo","latitude_map":5.868,"longitude_map":9.765},{"iso_code":"abt, wos","name":"Ambulas","speakers":27526,"risk":"at_risk","series_type":"scenario","family_root":"Sepik","latitude_map":-3.78,"longitude_map":143.06},{"iso_code":"amj","name":"Amdang","speakers":3469,"risk":"at_risk","series_type":"scenario","family_root":"Furan","latitude_map":14.62478,"longitude_map":20.944645},{"iso_code":"aqd","name":"Ampari","speakers":3608,"risk":"at_risk","series_type":"scenario","family_root":"Niger-Congo","latitude_map":14.257728,"longitude_map":-3.90712},{"iso_code":"law-amp","name":"Ampibabo","speakers":5005,"risk":"at_risk","series_type":"scenario","family_root":"Austronesian","latitude_map":-0.5,"longitude_map":120.0},{"iso_code":"amt","name":"Amto","speakers":160,"risk":"at_risk","series_type":"scenario","family_root":"Amto-Musan","latitude_map":-4.052936,"longitude_map":141.328445},{"iso_code":"ame","name":"Amuesha","speakers":5551,"risk":"at_risk","series_type":"scenario","family_root":"Arawakan","latitude_map":-10.3743,"longitude_map":-75.2343},{"iso_code":"1ot","name":"Amur Nivkh","speakers":417,"risk":"at_risk","series_type":"scenario","family_root":"Nivkh","latitude_map":53.2684,"longitude_map":140.4107},{"iso_code":"amg","name":"Amurdak","speakers":null,"risk":"lost","series_type":"scenario","family_root":"Iwaidjan","latitude_map":-11.149603,"longitude_map":132.576973},{"iso_code":"anw","name":"Anaang","speakers":611452,"risk":"at_risk","series_type":"scenario","family_root":"Niger-Congo","latitude_map":5.182927,"longitude_map":7.715479},{"iso_code":"akg","name":"Anakalangu","speakers":20853,"risk":"at_risk","series_type":"scenario","family_root":"Austronesian","latitude_map":-9.576376,"longitude_map":119.586182},{"iso_code":"anm","name":"Anal","speakers":38161,"risk":"at_risk","series_type":"scenario","family_root":"Sino-Tibetan","latitude_map":24.1517,"longitude_map":93.9385},{"iso_code":"pda","name":"Anam","speakers":742,"risk":"at_risk","series_type":"scenario","family_root":"Trans-New Guinea","latitude_map":-4.811839,"longitude_map":145.008545},{"iso_code":"aan","name":"Anambé of Cairarí","speakers":null,"risk":"lost","series_type":"scenario","family_root":"Tupian","latitude_map":-2.592,"longitude_map":-49.483},{"iso_code":"ajn","name":"Andajin","speakers":null,"risk":"lost","series_type":"scenario","family_root":"Worrorran","latitude_map":-17.376608,"longitude_map":126.259285},{"iso_code":"aod","name":"Andarum","speakers":576,"risk":"at_risk","series_type":"scenario","family_root":"Lower Sepik-Ramu","latitude_map":-4.49,"longitude_map":144.77},{"iso_code":"mrp","name":"Ande","speakers":347,"risk":"at_risk","series_type":"scenario","family_root":"Austronesian","latitude_map":-15.470705,"longitude_map":166.936238},{"iso_code":"ani","name":"Andi","speakers":12512,"risk":"at_risk","series_type":"scenario","family_root":"Northeast Caucasian","latitude_map":42.7308,"longitude_map":46.2963},{"iso_code":"bzb","name":"Andio","speakers":1180,"risk":"at_risk","series_type":"scenario","family_root":"Austronesian","latitude_map":-0.8514,"longitude_map":123.1457},{"iso_code":"anb","name":"Andoa","speakers":null,"risk":"lost","series_type":"scenario","family_root":"Zaparoan","latitude_map":-2.6796,"longitude_map":-76.2011},{"iso_code":"ano","name":"Andoque","speakers":null,"risk":"lost","series_type":"scenario","family_root":"Isolate","latitude_map":-0.769,"longitude_map":-72.2351},{"iso_code":"anz","name":"Anem","speakers":585,"risk":"at_risk","series_type":"scenario","family_root":"Isolate","latitude_map":-5.54836,"longitude_map":148.993},{"iso_code":"myo","name":"Anfillo","speakers":347,"risk":"at_risk","series_type":"scenario","family_root":"Afro-Asiatic","latitude_map":8.5049,"longitude_map":34.7415},{"iso_code":"aqt","name":"Angaité","speakers":371,"risk":"at_risk","series_type":"scenario","family_root":"Enlhet-Enenlhet (Mascoyan)","latitude_map":-21.937968,"longitude_map":-59.958687},{"iso_code":"agg","name":"Angor","speakers":867,"risk":"at_risk","series_type":"scenario","family_root":"Senagi","latitude_map":-3.72,"longitude_map":141.2},{"iso_code":"aog","name":"Angoram","speakers":5434,"risk":"at_risk","series_type":"scenario","family_root":"Lower Sepik-Ramu","latitude_map":-4.08,"longitude_map":144.03},{"iso_code":"blo","name":"Anii","speakers":10427,"risk":"at_risk","series_type":"scenario","family_root":"Niger-Congo","latitude_map":9.032,"longitude_map":1.657},{"iso_code":"anf","name":"Animere","speakers":14,"risk":"at_risk","series_type":"scenario","family_root":"Niger-Congo","latitude_map":7.6129,"longitude_map":0.4064},{"iso_code":"aoi","name":"Anindilyakwa","speakers":1041,"risk":"at_risk","series_type":"scenario","family_root":"Gunwinyguan","latitude_map":-13.939399,"longitude_map":136.592789},{"iso_code":"amx","name":"Anmatyerre","speakers":520,"risk":"at_risk","series_type":"scenario","family_root":"Pama-Nyungan","latitude_map":-21.982775,"longitude_map":133.429034},{"iso_code":"nun","name":"Anong","speakers":1923,"risk":"at_risk","series_type":"scenario","family_root":"Sino-Tibetan","latitude_map":27.1,"longitude_map":98.7},{"iso_code":"anj","name":"Anor","speakers":312,"risk":"at_risk","series_type":"scenario","family_root":"Lower Sepik-Ramu","latitude_map":-4.98,"longitude_map":144.8},{"iso_code":"ant","name":"Antakirinya","speakers":24,"risk":"at_risk","series_type":"scenario","family_root":"Pama-Nyungan","latitude_map":-27.052452,"longitude_map":134.400751},{"iso_code":"adg","name":"Antekerrepenh","speakers":null,"risk":"lost","series_type":"scenario","family_root":"Pama-Nyungan","latitude_map":-23.231896,"longitude_map":139.971559},{"iso_code":"aui","name":"Anuki","speakers":398,"risk":"at_risk","series_type":"scenario","family_root":"Austronesian","latitude_map":-9.6522,"longitude_map":149.7656},{"iso_code":"auq","name":"Anus","speakers":222,"risk":"at_risk","series_type":"scenario","family_root":"Austronesian","latitude_map":-2.1268,"longitude_map":139.5126},{"iso_code":"aud","name":"Anuta","speakers":236,"risk":"at_risk","series_type":"scenario","family_root":"Austronesian","latitude_map":-11.611,"longitude_map":169.85},{"iso_code":"aor","name":"Aore","speakers":null,"risk":"lost","series_type":"scenario","family_root":"Austronesian","latitude_map":-15.58797,"longitude_map":167.211754},{"iso_code":"kbx","name":"Ap Ma","speakers":4510,"risk":"at_risk","series_type":"scenario","family_root":"Isolate","latitude_map":-4.35,"longitude_map":144.09},{"iso_code":"apy","name":"Apalaí","speakers":220,"risk":"at_risk","series_type":"scenario","family_root":"Cariban","latitude_map":1.2084,"longitude_map":-55.1074},{"iso_code":"apt","name":"Apatani","speakers":11678,"risk":"at_risk","series_type":"scenario","family_root":"Sino-Tibetan","latitude_map":27.5228,"longitude_map":93.8177},{"iso_code":"api","name":"Apiaká","speakers":null,"risk":"lost","series_type":"scenario","family_root":"Tupian","latitude_map":-11.1519,"longitude_map":-57.3113},{"iso_code":"apn","name":"Apinayé","speakers":null,"risk":"lost","series_type":"scenario","family_root":"Jean","latitude_map":-5.5,"longitude_map":-48.0},{"iso_code":"apu","name":"Apuriná","speakers":278,"risk":"at_risk","series_type":"scenario","family_root":"Arawakan","latitude_map":-9.0,"longitude_map":-67.0},{"iso_code":"apx","name":"Aputai","speakers":104,"risk":"at_risk","series_type":"scenario","family_root":"Austronesian","latitude_map":-7.6511,"longitude_map":126.4086},{"iso_code":"ard","name":"Arabana-Wangkangurru","speakers":null,"risk":"lost","series_type":"scenario","family_root":"Pama-Nyungan","latitude_map":-31.305219,"longitude_map":138.428335},{"iso_code":"arl","name":"Arabela","speakers":14,"risk":"at_risk","series_type":"scenario","family_root":"Zaparoan","latitude_map":-1.5818,"longitude_map":-75.3881},{"iso_code":"arg","name":"Aragonese","speakers":3469,"risk":"at_risk","series_type":"scenario","family_root":"Indo-European","latitude_map":42.2935,"longitude_map":-0.4394},{"iso_code":"akr","name":"Araki","speakers":null,"risk":"lost","series_type":"scenario","family_root":"Austronesian","latitude_map":-15.666667,"longitude_map":166.916667},{"iso_code":"aaf","name":"Aranadan","speakers":139,"risk":"at_risk","series_type":"scenario","family_root":"Dravidian","latitude_map":11.35,"longitude_map":75.8},{"iso_code":"aro","name":"Araona","speakers":97,"risk":"at_risk","series_type":"scenario","family_root":"Pano-Tacanan","latitude_map":-12.4473,"longitude_map":-68.1372},{"iso_code":"arp","name":"Arapaho","speakers":476,"risk":"at_risk","series_type":"scenario","family_root":"Algic","latitude_map":43.0139,"longitude_map":-108.8214},{"iso_code":"arj","name":"Arapaso","speakers":null,"risk":"lost","series_type":"scenario","family_root":"Tucanoan","latitude_map":0.0,"longitude_map":-66.0},{"iso_code":"axg","name":"Arára of Mato Grosso","speakers":null,"risk":"lost","series_type":"scenario","family_root":"Isolate","latitude_map":-9.777,"longitude_map":-59.398},{"iso_code":"awt","name":"Araweté","speakers":235,"risk":"at_risk","series_type":"scenario","family_root":"Tupian","latitude_map":-5.1347,"longitude_map":-52.3388},{"iso_code":"awm","name":"Arawum","speakers":35,"risk":"at_risk","series_type":"scenario","family_root":"Trans-New Guinea","latitude_map":-5.5093,"longitude_map":145.8929},{"iso_code":"aae","name":"Arbëreshë","speakers":41707,"risk":"at_risk","series_type":"scenario","family_root":"Indo-European","latitude_map":40.9321,"longitude_map":14.8645},{"iso_code":"arv","name":"Arbore","speakers":3081,"risk":"at_risk","series_type":"scenario","family_root":"Afro-Asiatic","latitude_map":5.0,"longitude_map":36.75},{"iso_code":"aqc","name":"Archi","speakers":858,"risk":"at_risk","series_type":"scenario","family_root":"Northeast Caucasian","latitude_map":41.9839,"longitude_map":46.8127},{"iso_code":"aem","name":"Arem","speakers":24,"risk":"at_risk","series_type":"scenario","family_root":"Austro-Asiatic","latitude_map":18.1771,"longitude_map":105.3369},{"iso_code":"aed","name":"Argentine Sign Language","speakers":null,"risk":"unknown","series_type":"scenario","family_root":"Not recorded","latitude_map":-34.8,"longitude_map":-59.18},{"iso_code":"agj","name":"Argobba","speakers":9059,"risk":"at_risk","series_type":"scenario","family_root":"Afro-Asiatic","latitude_map":10.5958,"longitude_map":39.9792},{"iso_code":"agf","name":"Arguni","speakers":104,"risk":"at_risk","series_type":"scenario","family_root":"Austronesian","latitude_map":-2.6632,"longitude_map":132.5418},{"iso_code":"aqr","name":"Arhâ","speakers":17,"risk":"at_risk","series_type":"scenario","family_root":"Austronesian","latitude_map":-21.3047,"longitude_map":165.0146},{"iso_code":"aok","name":"Arhö","speakers":30,"risk":"at_risk","series_type":"scenario","family_root":"Austronesian","latitude_map":-21.274,"longitude_map":165.0503},{"iso_code":"aac","name":"Ari","speakers":24,"risk":"at_risk","series_type":"scenario","family_root":"Trans-New Guinea","latitude_map":-8.0,"longitude_map":142.4},{"iso_code":"aea","name":"Ariba","speakers":null,"risk":"lost","series_type":"scenario","family_root":"Pama-Nyungan","latitude_map":-17.120653,"longitude_map":141.833361},{"iso_code":"aai","name":"Arifama-Miniafia","speakers":2408,"risk":"at_risk","series_type":"scenario","family_root":"Austronesian","latitude_map":-9.51824,"longitude_map":149.349884},{"iso_code":"ark","name":"Arikapú","speakers":null,"risk":"lost","series_type":"scenario","family_root":"Jabutian","latitude_map":-12.0527,"longitude_map":-64.7259},{"iso_code":"ari","name":"Arikara","speakers":null,"risk":"lost","series_type":"scenario","family_root":"Caddoan","latitude_map":47.648,"longitude_map":-101.8327},{"iso_code":"rup","name":"Aromanian","speakers":242845,"risk":"at_risk","series_type":"scenario","family_root":"Indo-European","latitude_map":40.2292,"longitude_map":21.1376},{"iso_code":"atz","name":"Arta","speakers":null,"risk":"lost","series_type":"scenario","family_root":"Austronesian","latitude_map":16.216,"longitude_map":121.599},{"iso_code":"alx","name":"Aru","speakers":187,"risk":"at_risk","series_type":"scenario","family_root":"Torricelli","latitude_map":-3.457063,"longitude_map":142.539093},{"iso_code":"arx","name":"Aruá","speakers":null,"risk":"lost","series_type":"scenario","family_root":"Tupian","latitude_map":-12.0285,"longitude_map":-64.7094},{"iso_code":"msy","name":"Aruamu","speakers":3712,"risk":"at_risk","series_type":"scenario","family_root":"Lower Sepik-Ramu","latitude_map":-4.29,"longitude_map":144.84},{"iso_code":"aur","name":"Aruek","speakers":426,"risk":"at_risk","series_type":"scenario","family_root":"Torricelli","latitude_map":-3.38,"longitude_map":142.72},{"iso_code":"lsr","name":"Aruop","speakers":486,"risk":"at_risk","series_type":"scenario","family_root":"Torricelli","latitude_map":-3.46,"longitude_map":142.48},{"iso_code":"atx","name":"Arutani","speakers":null,"risk":"lost","series_type":"scenario","family_root":"Isolate","latitude_map":4.07,"longitude_map":-62.87},{"iso_code":"aat","name":"Arvanitika","speakers":41707,"risk":"at_risk","series_type":"scenario","family_root":"Indo-European","latitude_map":38.1863,"longitude_map":23.6096},{"iso_code":"asz","name":"As","speakers":null,"risk":"lost","series_type":"scenario","family_root":"Austronesian","latitude_map":-0.742007,"longitude_map":131.683156},{"iso_code":"seo","name":"Asaba","speakers":101,"risk":"at_risk","series_type":"scenario","family_root":"Isolate","latitude_map":-5.0526,"longitude_map":141.9818},{"iso_code":"cni","name":"Asháninka","speakers":23356,"risk":"at_risk","series_type":"scenario","family_root":"Arawakan","latitude_map":-10.733,"longitude_map":-73.75},{"iso_code":"cpc, cjo, prq, cpu, cpy, cpb","name":"Ashéninka","speakers":16683,"risk":"at_risk","series_type":"scenario","family_root":"Arawakan","latitude_map":-10.933333,"longitude_map":-75.266667},{"iso_code":"adi-ash","name":"Ashing","speakers":834,"risk":"at_risk","series_type":"scenario","family_root":"Sino-Tibetan","latitude_map":29.010278,"longitude_map":94.901944},{"iso_code":"ask","name":"Ashkun","speakers":2428,"risk":"at_risk","series_type":"scenario","family_root":"Indo-European","latitude_map":34.9973,"longitude_map":71.0746},{"iso_code":"atn","name":"Ashtiani","speakers":17600,"risk":"at_risk","series_type":"scenario","family_root":"Indo-European","latitude_map":37.75,"longitude_map":48.68},{"iso_code":"08a","name":"Aširat Northeastern Neo-Aramaic","speakers":null,"risk":"unknown","series_type":"scenario","family_root":"Afro-Asiatic","latitude_map":37.2229,"longitude_map":44.67},{"iso_code":"sjg","name":"Assangori","speakers":19602,"risk":"at_risk","series_type":"scenario","family_root":"Taman","latitude_map":13.75,"longitude_map":21.5},{"iso_code":"asb","name":"Assiniboine","speakers":52,"risk":"at_risk","series_type":"scenario","family_root":"Siouan","latitude_map":48.4466,"longitude_map":-114.8783},{"iso_code":"ast","name":"Asturian","speakers":91755,"risk":"at_risk","series_type":"scenario","family_root":"Indo-European","latitude_map":43.25,"longitude_map":-6.0},{"iso_code":"aua","name":"Asumboa","speakers":null,"risk":"lost","series_type":"scenario","family_root":"Austronesian","latitude_map":-11.2982,"longitude_map":166.4868},{"iso_code":"zoo","name":"Asunción Mixtepec Zapotec","speakers":83,"risk":"at_risk","series_type":"scenario","family_root":"Otomanguean","latitude_map":16.88,"longitude_map":-96.87},{"iso_code":"asr","name":"Asuri","speakers":4857,"risk":"at_risk","series_type":"scenario","family_root":"Austro-Asiatic","latitude_map":22.4719,"longitude_map":84.9023},{"iso_code":"asu","name":"Asuriní do Tocantins","speakers":266,"risk":"at_risk","series_type":"scenario","family_root":"Tupian","latitude_map":-3.5,"longitude_map":-50.0},{"iso_code":"asn","name":"Asuriní of Xingú","speakers":76,"risk":"at_risk","series_type":"scenario","family_root":"Tupian","latitude_map":-3.9095,"longitude_map":-52.4707},{"iso_code":"atm","name":"Ata","speakers":null,"risk":"lost","series_type":"scenario","family_root":"Austronesian","latitude_map":9.6081,"longitude_map":122.9155},{"iso_code":"amz","name":"Atampaya","speakers":null,"risk":"lost","series_type":"scenario","family_root":"Pama-Nyungan","latitude_map":-11.482111,"longitude_map":142.374378},{"iso_code":"aph","name":"Athpariya","speakers":1269,"risk":"at_risk","series_type":"scenario","family_root":"Sino-Tibetan","latitude_map":26.952,"longitude_map":87.3399},{"iso_code":"atk","name":"Ati (Philippines)","speakers":724,"risk":"at_risk","series_type":"scenario","family_root":"Austronesian","latitude_map":11.15,"longitude_map":122.51},{"iso_code":"ato","name":"Atong (Cameroon)","speakers":3503,"risk":"at_risk","series_type":"scenario","family_root":"Niger-Congo","latitude_map":6.044967,"longitude_map":9.748787},{"iso_code":"aot","name":"Atong (India)","speakers":null,"risk":"unknown","series_type":"scenario","family_root":"Sino-Tibetan","latitude_map":25.2844,"longitude_map":91.1755},{"iso_code":"atw","name":"Atsugewi","speakers":null,"risk":"lost","series_type":"scenario","family_root":"Palaihnihan","latitude_map":40.75,"longitude_map":-121.0},{"iso_code":"atj","name":"Attikamek","speakers":2502,"risk":"at_risk","series_type":"scenario","family_root":"Algic","latitude_map":47.2104,"longitude_map":-74.3827},{"iso_code":"avt","name":"Au","speakers":2914,"risk":"at_risk","series_type":"scenario","family_root":"Torricelli","latitude_map":-3.6,"longitude_map":142.1},{"iso_code":"aul","name":"Aulua","speakers":520,"risk":"at_risk","series_type":"scenario","family_root":"Austronesian","latitude_map":-16.36,"longitude_map":167.7},{"iso_code":"aux","name":"Auré","speakers":null,"risk":"lost","series_type":"scenario","family_root":"Tupian","latitude_map":-2.9649,"longitude_map":-46.2084},{"iso_code":"aut","name":"Austral","speakers":5551,"risk":"at_risk","series_type":"scenario","family_root":"Austronesian","latitude_map":-23.3775,"longitude_map":-149.4909},{"iso_code":"asf","name":"Australian Sign Language","speakers":4510,"risk":"at_risk","series_type":"scenario","family_root":"Sign Language","latitude_map":-35.3075,"longitude_map":149.124417},{"iso_code":"oci-auv","name":"Auvergnat","speakers":125120,"risk":"at_risk","series_type":"scenario","family_root":"Indo-European","latitude_map":45.1278,"longitude_map":3.1311},{"iso_code":"smf","name":"Auwe","speakers":187,"risk":"at_risk","series_type":"scenario","family_root":"Border","latitude_map":-3.34,"longitude_map":141.25},{"iso_code":"auu","name":"Auye","speakers":243,"risk":"at_risk","series_type":"scenario","family_root":"Trans-New Guinea","latitude_map":-3.5627,"longitude_map":135.9915},{"iso_code":"avv","name":"Avá","speakers":null,"risk":"lost","series_type":"scenario","family_root":"Tupian","latitude_map":-14.0847,"longitude_map":-48.0418},{"iso_code":"tmb","name":"Avava","speakers":584,"risk":"at_risk","series_type":"scenario","family_root":"Austronesian","latitude_map":-16.233418,"longitude_map":167.470106},{"iso_code":"dix","name":"Aveteian","speakers":24,"risk":"at_risk","series_type":"scenario","family_root":"Austronesian","latitude_map":-16.33,"longitude_map":167.52},{"iso_code":"kwi","name":"Awa Pit","speakers":7284,"risk":"at_risk","series_type":"scenario","family_root":"Barbacoan","latitude_map":1.5,"longitude_map":-78.25},{"iso_code":"awk","name":"Awabakal","speakers":null,"risk":"unknown","series_type":"scenario","family_root":"Pama-Nyungan","latitude_map":-33.09,"longitude_map":151.588},{"iso_code":"agu","name":"Awakateko","speakers":13573,"risk":"at_risk","series_type":"scenario","family_root":"Mayan","latitude_map":15.416667,"longitude_map":-91.333333},{"iso_code":"aya","name":"Awar","speakers":274,"risk":"at_risk","series_type":"scenario","family_root":"Lower Sepik-Ramu","latitude_map":-4.14,"longitude_map":144.84},{"iso_code":"awh","name":"Awbono","speakers":83,"risk":"at_risk","series_type":"scenario","family_root":"Bayono-Awbono","latitude_map":-5.06,"longitude_map":139.72},{"iso_code":"bob","name":"Aweer","speakers":69,"risk":"at_risk","series_type":"scenario","family_root":"Afro-Asiatic","latitude_map":-0.8294,"longitude_map":40.8142},{"iso_code":"awr","name":"Awera","speakers":69,"risk":"at_risk","series_type":"scenario","family_root":"Lakes Plain","latitude_map":-2.7084,"longitude_map":136.0395},{"iso_code":"awe","name":"Awetí","speakers":142,"risk":"at_risk","series_type":"scenario","family_root":"Tupian","latitude_map":-12.2053,"longitude_map":-53.3705},{"iso_code":"1j1","name":"Awiakay","speakers":250,"risk":"at_risk","series_type":"scenario","family_root":"Arafundi","latitude_map":-4.7,"longitude_map":143.6},{"iso_code":"auj","name":"Awjilah","speakers":694,"risk":"at_risk","series_type":"scenario","family_root":"Afro-Asiatic","latitude_map":26.6278,"longitude_map":24.5214},{"iso_code":"awn","name":"Awngi","speakers":417066,"risk":"at_risk","series_type":"scenario","family_root":"Afro-Asiatic","latitude_map":11.086775,"longitude_map":36.583614},{"iso_code":"gwm","name":"Awngthim","speakers":null,"risk":"lost","series_type":"scenario","family_root":"Pama-Nyungan","latitude_map":-12.587833,"longitude_map":142.023835},{"iso_code":"kmn","name":"Awtuw","speakers":278,"risk":"at_risk","series_type":"scenario","family_root":"Sepik","latitude_map":-3.58,"longitude_map":142.5},{"iso_code":"typ","name":"Awu Laya","speakers":null,"risk":"lost","series_type":"scenario","family_root":"Pama-Nyungan","latitude_map":-15.039972,"longitude_map":143.360461},{"iso_code":"aww","name":"Awun","speakers":266,"risk":"at_risk","series_type":"scenario","family_root":"Sepik","latitude_map":-3.8,"longitude_map":142.0},{"iso_code":"auw","name":"Awyi","speakers":278,"risk":"at_risk","series_type":"scenario","family_root":"Border","latitude_map":-2.943,"longitude_map":140.6359},{"iso_code":"ahb","name":"Axamb","speakers":626,"risk":"at_risk","series_type":"scenario","family_root":"Austronesian","latitude_map":-16.487266,"longitude_map":167.664068},{"iso_code":"quy","name":"Ayacucho Quechua","speakers":750719,"risk":"at_risk","series_type":"scenario","family_root":"Quechuan","latitude_map":-13.85,"longitude_map":-74.32},{"iso_code":"zoq","name":"Ayapanec Zoque","speakers":null,"risk":"lost","series_type":"scenario","family_root":"Mixe-Zoquean","latitude_map":18.223405,"longitude_map":-93.111446},{"iso_code":"ayd","name":"Ayapathu","speakers":null,"risk":"lost","series_type":"scenario","family_root":"Pama-Nyungan","latitude_map":-14.471736,"longitude_map":143.293445},{"iso_code":"axe","name":"Ayerreyenge","speakers":null,"risk":"lost","series_type":"scenario","family_root":"Pama-Nyungan","latitude_map":-23.699,"longitude_map":133.88},{"iso_code":"ayq","name":"Ayi","speakers":298,"risk":"at_risk","series_type":"scenario","family_root":"Sepik","latitude_map":-3.96,"longitude_map":142.41},{"iso_code":"yyz","name":"Ayizi","speakers":2618,"risk":"at_risk","series_type":"scenario","family_root":"Sino-Tibetan","latitude_map":24.5964,"longitude_map":103.7329},{"iso_code":"ayc","name":"Aymara","speakers":3234479,"risk":"alive","series_type":"scenario","family_root":"Aymaran","latitude_map":-17.1417,"longitude_map":-70.3442},{"iso_code":"zaf","name":"Ayoquesco","speakers":734,"risk":"at_risk","series_type":"scenario","family_root":"Otomanguean","latitude_map":16.66,"longitude_map":-96.86},{"iso_code":"ayo","name":"Ayoreo","speakers":1100,"risk":"at_risk","series_type":"scenario","family_root":"Zamucoan","latitude_map":-18.719,"longitude_map":-59.6228},{"iso_code":"ayu","name":"Ayu","speakers":261,"risk":"at_risk","series_type":"scenario","family_root":"Niger-Congo","latitude_map":9.293779,"longitude_map":8.615738},{"iso_code":"koe-baa","name":"Baale","speakers":7507,"risk":"at_risk","series_type":"scenario","family_root":"Surmic","latitude_map":5.583184,"longitude_map":35.188351},{"iso_code":"bvj","name":"Baan","speakers":1735,"risk":"at_risk","series_type":"scenario","family_root":"Niger-Congo","latitude_map":4.649881,"longitude_map":7.282008},{"iso_code":"mbf","name":"Baba Malay","speakers":952,"risk":"at_risk","series_type":"scenario","family_root":"Not recorded","latitude_map":1.75,"longitude_map":103.08},{"iso_code":"bbz","name":"Babalia Creole Arabic","speakers":2734,"risk":"at_risk","series_type":"scenario","family_root":"Creole","latitude_map":12.113056,"longitude_map":15.049167},{"iso_code":"bbk","name":"Babanki","speakers":13877,"risk":"at_risk","series_type":"scenario","family_root":"Niger-Congo","latitude_map":5.973611,"longitude_map":10.323333},{"iso_code":"bde","name":"Bade","speakers":208533,"risk":"at_risk","series_type":"scenario","family_root":"Afro-Asiatic","latitude_map":12.801,"longitude_map":11.1181},{"iso_code":"khd","name":"Bädi Kanum","speakers":null,"risk":"lost","series_type":"scenario","family_root":"Morehead-Upper Maro","latitude_map":-8.833333,"longitude_map":140.75},{"iso_code":"bia","name":"Badimaya","speakers":null,"risk":"lost","series_type":"scenario","family_root":"Pama-Nyungan","latitude_map":-29.123373,"longitude_map":116.706047},{"iso_code":"jbi","name":"Badjiri","speakers":null,"risk":"lost","series_type":"scenario","family_root":"Pama-Nyungan","latitude_map":-28.718704,"longitude_map":144.871948},{"iso_code":"bfq","name":"Badugu","speakers":92975,"risk":"at_risk","series_type":"scenario","family_root":"Dravidian","latitude_map":11.374818,"longitude_map":76.755583},{"iso_code":"pbp","name":"Badyara","speakers":10010,"risk":"at_risk","series_type":"scenario","family_root":"Niger-Congo","latitude_map":12.4043,"longitude_map":-13.5736},{"iso_code":"bcg","name":"Baga Binari","speakers":2082,"risk":"at_risk","series_type":"scenario","family_root":"Niger-Congo","latitude_map":10.4013,"longitude_map":-14.4799},{"iso_code":"bgo","name":"Baga Koga","speakers":1735,"risk":"at_risk","series_type":"scenario","family_root":"Niger-Congo","latitude_map":10.026644,"longitude_map":-14.040625},{"iso_code":"bmd","name":"Baga Manduri","speakers":2775,"risk":"at_risk","series_type":"scenario","family_root":"Niger-Congo","latitude_map":10.835666,"longitude_map":-14.542517},{"iso_code":"bgm","name":"Baga Mboteni","speakers":1700,"risk":"at_risk","series_type":"scenario","family_root":"Niger-Congo","latitude_map":10.7415,"longitude_map":-14.5513},{"iso_code":"bsp","name":"Baga Sitemu","speakers":2775,"risk":"at_risk","series_type":"scenario","family_root":"Niger-Congo","latitude_map":10.5,"longitude_map":-14.5},{"iso_code":"bfz-bag","name":"Baghati","speakers":3337,"risk":"at_risk","series_type":"scenario","family_root":"Indo-European","latitude_map":31.194,"longitude_map":77.0471},{"iso_code":"bqg","name":"Bago-Kusuntu","speakers":5204,"risk":"at_risk","series_type":"scenario","family_root":"Niger-Congo","latitude_map":8.52697,"longitude_map":1.41214},{"iso_code":"bpi","name":"Bagupi","speakers":40,"risk":"at_risk","series_type":"scenario","family_root":"Trans-New Guinea","latitude_map":-5.0454,"longitude_map":145.5822},{"iso_code":"kva","name":"Bagvalal","speakers":3469,"risk":"at_risk","series_type":"scenario","family_root":"Northeast Caucasian","latitude_map":42.5247,"longitude_map":46.192},{"iso_code":"yha","name":"Baha Buyang","speakers":262,"risk":"at_risk","series_type":"scenario","family_root":"Tai-Kadai","latitude_map":23.4146,"longitude_map":105.7632},{"iso_code":"bjh","name":"Bahinemo","speakers":584,"risk":"at_risk","series_type":"scenario","family_root":"Sepik","latitude_map":-4.56,"longitude_map":142.83},{"iso_code":"bhj","name":"Bahing","speakers":null,"risk":"lost","series_type":"scenario","family_root":"Sino-Tibetan","latitude_map":27.3126,"longitude_map":86.5571},{"iso_code":"bsu","name":"Bahonsuai","speakers":125,"risk":"at_risk","series_type":"scenario","family_root":"Austronesian","latitude_map":-2.2186,"longitude_map":121.6845},{"iso_code":"bdj","name":"Bai","speakers":1735,"risk":"at_risk","series_type":"scenario","family_root":"Niger-Congo","latitude_map":8.0592,"longitude_map":25.5102},{"iso_code":"bbf","name":"Baibai","speakers":188,"risk":"at_risk","series_type":"scenario","family_root":"Baibai-Fas","latitude_map":-3.463972,"longitude_map":141.358078},{"iso_code":"bkx","name":"Baikeno","speakers":16683,"risk":"at_risk","series_type":"scenario","family_root":"Austronesian","latitude_map":-9.33,"longitude_map":124.26},{"iso_code":"bqh","name":"Baima","speakers":6938,"risk":"at_risk","series_type":"scenario","family_root":"Sino-Tibetan","latitude_map":33.1531,"longitude_map":103.8696},{"iso_code":"bcz","name":"Bainouk-Gunyaamolo","speakers":4163,"risk":"at_risk","series_type":"scenario","family_root":"Niger-Congo","latitude_map":12.7421,"longitude_map":-16.1141},{"iso_code":"bcb","name":"Bainouk-Samik","speakers":1284,"risk":"at_risk","series_type":"scenario","family_root":"Niger-Congo","latitude_map":12.5733,"longitude_map":-16.2652},{"iso_code":"1id","name":"Baïnounk Gubëeher","speakers":918,"risk":"at_risk","series_type":"scenario","family_root":"Niger-Congo","latitude_map":12.531272,"longitude_map":-16.353248},{"iso_code":"0tz","name":"Baïnounk Gujaher","speakers":null,"risk":"unknown","series_type":"scenario","family_root":"Niger-Congo","latitude_map":12.579,"longitude_map":-16.283},{"iso_code":"bjm","name":"Bajelani","speakers":16683,"risk":"at_risk","series_type":"scenario","family_root":"Indo-European","latitude_map":33.969421,"longitude_map":43.014152},{"iso_code":"bkc","name":"Baka (East Region, Cameroon)","speakers":33365,"risk":"at_risk","series_type":"scenario","family_root":"Niger-Congo","latitude_map":2.043024,"longitude_map":13.399887},{"iso_code":"5h1","name":"Baka (Far North Region, Cameroon)","speakers":117,"risk":"at_risk","series_type":"scenario","family_root":"Afro-Asiatic","latitude_map":10.881522,"longitude_map":14.193724},{"iso_code":"bkq","name":"Bakairí","speakers":624,"risk":"at_risk","series_type":"scenario","family_root":"Cariban","latitude_map":-14.4213,"longitude_map":-54.0305},{"iso_code":"bki","name":"Baki","speakers":104,"risk":"at_risk","series_type":"scenario","family_root":"Austronesian","latitude_map":-16.689546,"longitude_map":168.126054},{"iso_code":"kme","name":"Bakole","speakers":208,"risk":"at_risk","series_type":"scenario","family_root":"Niger-Congo","latitude_map":4.5764,"longitude_map":8.8439},{"iso_code":"bbs","name":"Bakpinka","speakers":2370,"risk":"at_risk","series_type":"scenario","family_root":"Niger-Congo","latitude_map":5.3644,"longitude_map":8.2397},{"iso_code":"bls","name":"Balaesang","speakers":2220,"risk":"at_risk","series_type":"scenario","family_root":"Austronesian","latitude_map":-0.1,"longitude_map":119.7},{"iso_code":"bdn","name":"Baldemu","speakers":null,"risk":"lost","series_type":"scenario","family_root":"Afro-Asiatic","latitude_map":10.5742,"longitude_map":14.5623},{"iso_code":"bcn","name":"Bali","speakers":694,"risk":"at_risk","series_type":"scenario","family_root":"Niger-Congo","latitude_map":7.85938,"longitude_map":10.970208},{"iso_code":"bgx","name":"Balkan Gagauz Turkish","speakers":229662,"risk":"at_risk","series_type":"scenario","family_root":"Turkic","latitude_map":41.4633,"longitude_map":22.6977},{"iso_code":"rmn","name":"Balkan Romani","speakers":510322,"risk":"at_risk","series_type":"scenario","family_root":"Indo-European","latitude_map":42.666667,"longitude_map":21.166667},{"iso_code":"bft","name":"Balti","speakers":225216,"risk":"at_risk","series_type":"scenario","family_root":"Sino-Tibetan","latitude_map":35.900731,"longitude_map":74.409599},{"iso_code":"rml","name":"Baltic Romani","speakers":48763,"risk":"at_risk","series_type":"scenario","family_root":"Indo-European","latitude_map":60.0,"longitude_map":38.0},{"iso_code":"bfk","name":"Ban Khor Sign Language","speakers":278,"risk":"at_risk","series_type":"scenario","family_root":"Sign Language","latitude_map":16.0,"longitude_map":103.0},{"iso_code":"bcw","name":"Bana","speakers":19185,"risk":"at_risk","series_type":"scenario","family_root":"Afro-Asiatic","latitude_map":10.416667,"longitude_map":13.583333},{"iso_code":"byz","name":"Banaro","speakers":1782,"risk":"at_risk","series_type":"scenario","family_root":"Isolate","latitude_map":-4.57,"longitude_map":144.33},{"iso_code":"jaa-kit","name":"Banawá","speakers":83,"risk":"at_risk","series_type":"scenario","family_root":"Arawan","latitude_map":-5.628,"longitude_map":-63.183},{"iso_code":"bqj","name":"Bandial","speakers":4857,"risk":"at_risk","series_type":"scenario","family_root":"Niger-Congo","latitude_map":12.5317,"longitude_map":-16.1553},{"iso_code":"bdy","name":"Bandjalang","speakers":26,"risk":"at_risk","series_type":"scenario","family_root":"Pama-Nyungan","latitude_map":-28.617377,"longitude_map":153.00416},{"iso_code":"bgf","name":"Bangandu","speakers":1873,"risk":"at_risk","series_type":"scenario","family_root":"Niger-Congo","latitude_map":2.18716,"longitude_map":14.7506},{"iso_code":"gbm-ban","name":"Bangani","speakers":10010,"risk":"at_risk","series_type":"scenario","family_root":"Indo-European","latitude_map":29.8692,"longitude_map":79.0686},{"iso_code":"dba","name":"Bangime","speakers":1457,"risk":"at_risk","series_type":"scenario","family_root":"Isolate","latitude_map":14.797222,"longitude_map":-3.761111},{"iso_code":"mfb","name":"Bangka","speakers":24,"risk":"at_risk","series_type":"scenario","family_root":"Austronesian","latitude_map":-2.335839,"longitude_map":106.038567},{"iso_code":"bwi","name":"Baniwa","speakers":6629,"risk":"at_risk","series_type":"scenario","family_root":"Arawakan","latitude_map":1.2743,"longitude_map":-68.291},{"iso_code":"bxw","name":"Bankagooma","speakers":4163,"risk":"at_risk","series_type":"scenario","family_root":"Niger-Congo","latitude_map":11.4261,"longitude_map":-5.6744},{"iso_code":"dbw","name":"Bankan Tey","speakers":916,"risk":"at_risk","series_type":"scenario","family_root":"Niger-Congo","latitude_map":15.1,"longitude_map":-2.9},{"iso_code":"abb","name":"Bankon","speakers":10010,"risk":"at_risk","series_type":"scenario","family_root":"Niger-Congo","latitude_map":4.416667,"longitude_map":9.583333},{"iso_code":"bap","name":"Bantawa","speakers":257454,"risk":"at_risk","series_type":"scenario","family_root":"Sino-Tibetan","latitude_map":27.0994,"longitude_map":87.0048},{"iso_code":"bao","name":"Bará","speakers":90,"risk":"at_risk","series_type":"scenario","family_root":"Tucanoan","latitude_map":0.333333,"longitude_map":-70.25},{"iso_code":"tat-bar","name":"Baraba Tatar","speakers":6673,"risk":"at_risk","series_type":"scenario","family_root":"Turkic","latitude_map":55.149606,"longitude_map":78.330788},{"iso_code":"rbp","name":"Barababaraba","speakers":null,"risk":"lost","series_type":"scenario","family_root":"Pama-Nyungan","latitude_map":-23.297903,"longitude_map":137.140058},{"iso_code":"bva","name":"Barain","speakers":3469,"risk":"at_risk","series_type":"scenario","family_root":"Afro-Asiatic","latitude_map":11.06677,"longitude_map":17.933586},{"iso_code":"brd","name":"Baram","speakers":25,"risk":"at_risk","series_type":"scenario","family_root":"Sino-Tibetan","latitude_map":28.041,"longitude_map":84.629},{"iso_code":"brm","name":"Barambu","speakers":21354,"risk":"at_risk","series_type":"scenario","family_root":"Niger-Congo","latitude_map":3.5,"longitude_map":27.0},{"iso_code":"brs","name":"Baras","speakers":139,"risk":"at_risk","series_type":"scenario","family_root":"Austronesian","latitude_map":-1.8838,"longitude_map":119.3774},{"iso_code":"bsn","name":"Barasano","speakers":1335,"risk":"at_risk","series_type":"scenario","family_root":"Tucanoan","latitude_map":-0.166667,"longitude_map":-70.666667},{"iso_code":"boi","name":"Barbareño","speakers":null,"risk":"unknown","series_type":"scenario","family_root":"Chumashan","latitude_map":34.043946,"longitude_map":-118.916536},{"iso_code":"bcj","name":"Bardi","speakers":null,"risk":"lost","series_type":"scenario","family_root":"Nyulnyulan","latitude_map":-16.503027,"longitude_map":122.933158},{"iso_code":"bae","name":"Baré","speakers":null,"risk":"lost","series_type":"scenario","family_root":"Arawakan","latitude_map":1.428,"longitude_map":-66.9287},{"iso_code":"mot","name":"Barí","speakers":3337,"risk":"at_risk","series_type":"scenario","family_root":"Chibchan","latitude_map":9.0261,"longitude_map":-73.2678},{"iso_code":"bxo","name":"Barikanchi","speakers":null,"risk":"unknown","series_type":"scenario","family_root":"Not recorded","latitude_map":12.0,"longitude_map":8.0},{"iso_code":"bjb","name":"Barngarla","speakers":null,"risk":"unknown","series_type":"scenario","family_root":"Pama-Nyungan","latitude_map":-30.999369,"longitude_map":136.91378},{"iso_code":"bbi","name":"Barombi","speakers":2082,"risk":"at_risk","series_type":"scenario","family_root":"Niger-Congo","latitude_map":4.64584,"longitude_map":9.25261},{"iso_code":"bpt","name":"Barrow Point","speakers":null,"risk":"lost","series_type":"scenario","family_root":"Pama-Nyungan","latitude_map":-14.466016,"longitude_map":144.448784},{"iso_code":"sgh-bar","name":"Bartangi","speakers":2023,"risk":"at_risk","series_type":"scenario","family_root":"Indo-European","latitude_map":38.219736,"longitude_map":72.11835},{"iso_code":"bsg","name":"Bashkardi","speakers":4878,"risk":"at_risk","series_type":"scenario","family_root":"Indo-European","latitude_map":32.0392,"longitude_map":53.01374},{"iso_code":"bst","name":"Basketo","speakers":50048,"risk":"at_risk","series_type":"scenario","family_root":"Afro-Asiatic","latitude_map":6.566667,"longitude_map":36.266667},{"iso_code":"bsr","name":"Bassa-Kontagora","speakers":null,"risk":"lost","series_type":"scenario","family_root":"Niger-Congo","latitude_map":10.495914,"longitude_map":5.562996},{"iso_code":"bsc","name":"Bassari","speakers":14597,"risk":"at_risk","series_type":"scenario","family_root":"Niger-Congo","latitude_map":12.4529,"longitude_map":-13.3495},{"iso_code":"ayt","name":"Bataan Ayta","speakers":366,"risk":"at_risk","series_type":"scenario","family_root":"Austronesian","latitude_map":14.4324,"longitude_map":120.4788},{"iso_code":"bya","name":"Batak","speakers":139,"risk":"at_risk","series_type":"scenario","family_root":"Austronesian","latitude_map":10.306,"longitude_map":119.256},{"iso_code":"btx","name":"Batak Karo","speakers":475455,"risk":"at_risk","series_type":"scenario","family_root":"Austronesian","latitude_map":3.141907,"longitude_map":98.227524},{"iso_code":"btq","name":"Batek","speakers":666,"risk":"at_risk","series_type":"scenario","family_root":"Austro-Asiatic","latitude_map":4.6695,"longitude_map":102.5051},{"iso_code":"btv","name":"Bateri","speakers":23565,"risk":"at_risk","series_type":"scenario","family_root":"Indo-European","latitude_map":34.9073,"longitude_map":72.8675},{"iso_code":"bhm","name":"Baṭḥari","speakers":24,"risk":"at_risk","series_type":"scenario","family_root":"Afro-Asiatic","latitude_map":17.45,"longitude_map":53.12},{"iso_code":"btc","name":"Bati (Cameroon)","speakers":555,"risk":"at_risk","series_type":"scenario","family_root":"Niger-Congo","latitude_map":4.2012,"longitude_map":10.7858},{"iso_code":"bvt","name":"Bati (Indonesia)","speakers":2428,"risk":"at_risk","series_type":"scenario","family_root":"Austronesian","latitude_map":-3.61,"longitude_map":130.81},{"iso_code":"wdj","name":"Batjamalh","speakers":null,"risk":"lost","series_type":"scenario","family_root":"Isolate","latitude_map":-13.137203,"longitude_map":130.284308},{"iso_code":"bbl","name":"Batsbi","speakers":381,"risk":"at_risk","series_type":"scenario","family_root":"Northeast Caucasian","latitude_map":42.045117,"longitude_map":45.302274},{"iso_code":"xby","name":"Batyala","speakers":null,"risk":"unknown","series_type":"scenario","family_root":"Pama-Nyungan","latitude_map":-25.444862,"longitude_map":153.153993},{"iso_code":"brg","name":"Baure","speakers":null,"risk":"lost","series_type":"scenario","family_root":"Arawakan","latitude_map":-13.1008,"longitude_map":-64.5007},{"iso_code":"bgr","name":"Bawm Chin","speakers":null,"risk":"unknown","series_type":"scenario","family_root":"Sino-Tibetan","latitude_map":22.1874,"longitude_map":92.6477},{"iso_code":"byg","name":"Baygo","speakers":null,"risk":"lost","series_type":"scenario","family_root":"Daju","latitude_map":11.7436,"longitude_map":24.6423},{"iso_code":"byl","name":"Bayono","speakers":83,"risk":"at_risk","series_type":"scenario","family_root":"Bayono-Awbono","latitude_map":-5.22,"longitude_map":139.62},{"iso_code":"bda","name":"Bayot","speakers":14305,"risk":"at_risk","series_type":"scenario","family_root":"Niger-Congo","latitude_map":12.4218,"longitude_map":-16.4149},{"iso_code":"bsw","name":"Bayso","speakers":2220,"risk":"at_risk","series_type":"scenario","family_root":"Afro-Asiatic","latitude_map":6.4081,"longitude_map":37.749},{"iso_code":"scs-bea","name":"Bearlake","speakers":484,"risk":"at_risk","series_type":"scenario","family_root":"Athabaskan-Eyak-Tlingit","latitude_map":65.2161,"longitude_map":-123.4362},{"iso_code":"bek","name":"Bebeli","speakers":371,"risk":"at_risk","series_type":"scenario","family_root":"Austronesian","latitude_map":-5.33534,"longitude_map":150.10173},{"iso_code":"bed","name":"Bedoanas","speakers":125,"risk":"at_risk","series_type":"scenario","family_root":"Austronesian","latitude_map":-2.7263,"longitude_map":132.5582},{"iso_code":"bkf","name":"Beeke","speakers":347,"risk":"at_risk","series_type":"scenario","family_root":"Niger-Congo","latitude_map":0.9997,"longitude_map":28.7951},{"iso_code":"bnz","name":"Beezen","speakers":278,"risk":"at_risk","series_type":"scenario","family_root":"Niger-Congo","latitude_map":6.7518,"longitude_map":10.0744},{"iso_code":"bep","name":"Behoa","speakers":4163,"risk":"at_risk","series_type":"scenario","family_root":"Austronesian","latitude_map":-1.7163,"longitude_map":120.4211},{"iso_code":"beg","name":"Belait","speakers":333,"risk":"at_risk","series_type":"scenario","family_root":"Austronesian","latitude_map":4.582,"longitude_map":114.233},{"iso_code":"bxb","name":"Belanda Bor","speakers":5551,"risk":"at_risk","series_type":"scenario","family_root":"Nilotic","latitude_map":6.4954,"longitude_map":27.7404},{"iso_code":"bxq","name":"Bele","speakers":83,"risk":"at_risk","series_type":"scenario","family_root":"Afro-Asiatic","latitude_map":10.217625,"longitude_map":10.364777},{"iso_code":"byw","name":"Belhariya","speakers":261,"risk":"at_risk","series_type":"scenario","family_root":"Sino-Tibetan","latitude_map":26.95,"longitude_map":87.3},{"iso_code":"bey","name":"Beli (Papua New Guinea)","speakers":606,"risk":"at_risk","series_type":"scenario","family_root":"Torricelli","latitude_map":-3.671039,"longitude_map":142.382813},{"iso_code":"blm","name":"Beli (Sudan)","speakers":4579,"risk":"at_risk","series_type":"scenario","family_root":"Central Sudanic","latitude_map":6.4736,"longitude_map":29.2675},{"iso_code":"brw","name":"Bellari","speakers":694,"risk":"at_risk","series_type":"scenario","family_root":"Dravidian","latitude_map":11.6952,"longitude_map":76.4648},{"iso_code":"dbt","name":"Ben Tey","speakers":2082,"risk":"at_risk","series_type":"scenario","family_root":"Niger-Congo","latitude_map":14.9,"longitude_map":-3.0},{"iso_code":"bdp","name":"Bende","speakers":23691,"risk":"at_risk","series_type":"scenario","family_root":"Niger-Congo","latitude_map":-6.381068,"longitude_map":31.068306},{"iso_code":"bng","name":"Benga","speakers":2618,"risk":"at_risk","series_type":"scenario","family_root":"Niger-Congo","latitude_map":1.166667,"longitude_map":9.416667},{"iso_code":"bgy","name":"Benggoi","speakers":222,"risk":"at_risk","series_type":"scenario","family_root":"Austronesian","latitude_map":-3.0748,"longitude_map":130.0918},{"iso_code":"rif-ben","name":"Beni Iznassen","speakers":null,"risk":"unknown","series_type":"scenario","family_root":"Afro-Asiatic","latitude_map":34.9167,"longitude_map":-2.3167},{"iso_code":"bie","name":"Bepour","speakers":24,"risk":"at_risk","series_type":"scenario","family_root":"Trans-New Guinea","latitude_map":-4.586,"longitude_map":145.4184},{"iso_code":"bxv","name":"Berakou","speakers":null,"risk":"lost","series_type":"scenario","family_root":"Central Sudanic","latitude_map":12.8492,"longitude_map":15.032},{"iso_code":"brc","name":"Berbice Creole Dutch","speakers":null,"risk":"lost","series_type":"scenario","family_root":"Pidgin or Creole","latitude_map":5.333333,"longitude_map":-58.0},{"iso_code":"bit","name":"Berinomo","speakers":124,"risk":"at_risk","series_type":"scenario","family_root":"Sepik","latitude_map":-4.42,"longitude_map":142.46},{"iso_code":"bes","name":"Besme","speakers":853,"risk":"at_risk","series_type":"scenario","family_root":"Niger-Congo","latitude_map":9.6386,"longitude_map":16.018},{"iso_code":"bfe","name":"Betaf","speakers":416,"risk":"at_risk","series_type":"scenario","family_root":"Orya-Tor","latitude_map":-2.12,"longitude_map":139.25},{"iso_code":"byf","name":"Bete","speakers":26,"risk":"at_risk","series_type":"scenario","family_root":"Niger-Congo","latitude_map":7.016386,"longitude_map":9.766867},{"iso_code":"eot","name":"Beti","speakers":139,"risk":"at_risk","series_type":"scenario","family_root":"Niger-Congo","latitude_map":5.2495,"longitude_map":-3.3233},{"iso_code":"xub","name":"Betta Kurumba","speakers":2775,"risk":"at_risk","series_type":"scenario","family_root":"Dravidian","latitude_map":11.5,"longitude_map":76.75},{"iso_code":"kap","name":"Bezhta","speakers":4302,"risk":"at_risk","series_type":"scenario","family_root":"Northeast Caucasian","latitude_map":42.1369,"longitude_map":46.1508},{"iso_code":"bhd","name":"Bhadrawahi","speakers":28778,"risk":"at_risk","series_type":"scenario","family_root":"Indo-European","latitude_map":33.8886,"longitude_map":76.3},{"iso_code":"bhd-bha","name":"Bhalesi","speakers":null,"risk":"unknown","series_type":"scenario","family_root":"Indo-European","latitude_map":33.3947,"longitude_map":76.1352},{"iso_code":"bhe","name":"Bhaya","speakers":486,"risk":"at_risk","series_type":"scenario","family_root":"Indo-European","latitude_map":25.48,"longitude_map":69.31},{"iso_code":"unr-bhu","name":"Bhumij","speakers":83413,"risk":"at_risk","series_type":"scenario","family_root":"Austro-Asiatic","latitude_map":22.552,"longitude_map":85.804},{"iso_code":"bif","name":"Biafada","speakers":37453,"risk":"at_risk","series_type":"scenario","family_root":"Niger-Congo","latitude_map":11.537292,"longitude_map":-15.227014},{"iso_code":"bhw","name":"Biak","speakers":33314,"risk":"at_risk","series_type":"scenario","family_root":"Austronesian","latitude_map":-0.3076,"longitude_map":131.2207},{"iso_code":"xbp","name":"Bibbulman","speakers":null,"risk":"lost","series_type":"scenario","family_root":"Pama-Nyungan","latitude_map":-34.141362,"longitude_map":115.943785},{"iso_code":"bym","name":"Bidjara","speakers":null,"risk":"lost","series_type":"scenario","family_root":"Pama-Nyungan","latitude_map":-25.306239,"longitude_map":147.113739},{"iso_code":"bnk","name":"Bierebo","speakers":659,"risk":"at_risk","series_type":"scenario","family_root":"Austronesian","latitude_map":-16.621305,"longitude_map":168.160694},{"iso_code":"brj","name":"Bieria","speakers":12,"risk":"at_risk","series_type":"scenario","family_root":"Austronesian","latitude_map":-16.798039,"longitude_map":168.186479},{"iso_code":"biu","name":"Biete","speakers":15849,"risk":"at_risk","series_type":"scenario","family_root":"Sino-Tibetan","latitude_map":25.6514,"longitude_map":93.2409},{"iso_code":"bhc","name":"Biga","speakers":208,"risk":"at_risk","series_type":"scenario","family_root":"Austronesian","latitude_map":-2.0,"longitude_map":130.27},{"iso_code":"xbe","name":"Bigambal","speakers":null,"risk":"lost","series_type":"scenario","family_root":"Pama-Nyungan","latitude_map":-28.166667,"longitude_map":150.166667},{"iso_code":"ibh","name":"Bih","speakers":null,"risk":"lost","series_type":"scenario","family_root":"Austronesian","latitude_map":12.84,"longitude_map":108.045},{"iso_code":"byb","name":"Bikya","speakers":null,"risk":"lost","series_type":"scenario","family_root":"Niger-Congo","latitude_map":6.8309,"longitude_map":10.0277},{"iso_code":"byn","name":"Bilen","speakers":75072,"risk":"at_risk","series_type":"scenario","family_root":"Afro-Asiatic","latitude_map":15.75,"longitude_map":38.5},{"iso_code":"nbj-bil","name":"Bilinarra","speakers":null,"risk":"lost","series_type":"scenario","family_root":"Pama-Nyungan","latitude_map":-17.267321,"longitude_map":130.892848},{"iso_code":"tls","name":"Biliru","speakers":12,"risk":"at_risk","series_type":"scenario","family_root":"Austronesian","latitude_map":-15.533224,"longitude_map":167.136555},{"iso_code":"blb","name":"Bilua","speakers":6064,"risk":"at_risk","series_type":"scenario","family_root":"Isolate","latitude_map":-7.748003,"longitude_map":156.660565},{"iso_code":"bhp","name":"Bima","speakers":417066,"risk":"at_risk","series_type":"scenario","family_root":"Austronesian","latitude_map":-8.46,"longitude_map":118.726667},{"iso_code":"bhl","name":"Bimin","speakers":1668,"risk":"at_risk","series_type":"scenario","family_root":"Trans-New Guinea","latitude_map":-5.39,"longitude_map":142.04},{"iso_code":"byj","name":"Bina","speakers":4857,"risk":"at_risk","series_type":"scenario","family_root":"Niger-Congo","latitude_map":10.2868,"longitude_map":8.19726},{"iso_code":"wmb-bin","name":"Binbinka","speakers":null,"risk":"lost","series_type":"scenario","family_root":"Mirndi","latitude_map":-16.552078,"longitude_map":134.786606},{"iso_code":"gup","name":"Bininj Gun-wok","speakers":1110,"risk":"at_risk","series_type":"scenario","family_root":"Gunwinyguan","latitude_map":-12.265254,"longitude_map":133.646665},{"iso_code":"bny","name":"Bintulu","speakers":4588,"risk":"at_risk","series_type":"scenario","family_root":"Austronesian","latitude_map":3.19057,"longitude_map":113.090111},{"iso_code":"biy","name":"Birhor","speakers":694,"risk":"at_risk","series_type":"scenario","family_root":"Austro-Asiatic","latitude_map":21.7594,"longitude_map":85.935},{"iso_code":"bzr, xgi","name":"Biri","speakers":null,"risk":"unknown","series_type":"scenario","family_root":"Pama-Nyungan","latitude_map":-28.478349,"longitude_map":115.462875},{"iso_code":"bqq","name":"Biritai","speakers":173,"risk":"at_risk","series_type":"scenario","family_root":"Lakes Plain","latitude_map":-2.92,"longitude_map":137.68},{"iso_code":"bvq","name":"Birri","speakers":139,"risk":"at_risk","series_type":"scenario","family_root":"Not recorded","latitude_map":5.4902,"longitude_map":26.8505},{"iso_code":"brl","name":"Birwa","speakers":45877,"risk":"at_risk","series_type":"scenario","family_root":"Niger-Congo","latitude_map":-22.17,"longitude_map":28.33},{"iso_code":"ije","name":"Biseni","speakers":3330,"risk":"at_risk","series_type":"scenario","family_root":"Niger-Congo","latitude_map":5.40296,"longitude_map":6.51646},{"iso_code":"bpy","name":"Bishnupuriya","speakers":60807,"risk":"at_risk","series_type":"scenario","family_root":"Indo-European","latitude_map":24.297,"longitude_map":92.4499},{"iso_code":"bwh","name":"Bishuo","speakers":null,"risk":"lost","series_type":"scenario","family_root":"Niger-Congo","latitude_map":6.9032,"longitude_map":10.0991},{"iso_code":"bnw","name":"Bisis","speakers":274,"risk":"at_risk","series_type":"scenario","family_root":"Sepik","latitude_map":-4.46,"longitude_map":143.06},{"iso_code":"bir, bic","name":"Bisorio","speakers":458,"risk":"at_risk","series_type":"scenario","family_root":"Trans-New Guinea","latitude_map":-4.78,"longitude_map":143.21},{"iso_code":"bzi","name":"Bisu","speakers":951,"risk":"at_risk","series_type":"scenario","family_root":"Sino-Tibetan","latitude_map":19.75,"longitude_map":100.0},{"iso_code":"bgk","name":"Bit","speakers":238,"risk":"at_risk","series_type":"scenario","family_root":"Austro-Asiatic","latitude_map":21.1254,"longitude_map":101.4697},{"iso_code":"bwm","name":"Biwat","speakers":1139,"risk":"at_risk","series_type":"scenario","family_root":"Yuat","latitude_map":-4.39,"longitude_map":143.87},{"iso_code":"blp","name":"Blablanga","speakers":1388,"risk":"at_risk","series_type":"scenario","family_root":"Austronesian","latitude_map":-8.206,"longitude_map":159.4638},{"iso_code":"beu","name":"Blagar","speakers":3469,"risk":"at_risk","series_type":"scenario","family_root":"Timor-Alor-Pantar","latitude_map":-8.302799,"longitude_map":124.343837},{"iso_code":"bpw","name":"Bo","speakers":36,"risk":"at_risk","series_type":"scenario","family_root":"Left May","latitude_map":-4.297861,"longitude_map":141.587875},{"iso_code":"bzn","name":"Boano (Maluku, Indonesia)","speakers":2248,"risk":"at_risk","series_type":"scenario","family_root":"Austronesian","latitude_map":-2.96,"longitude_map":127.95},{"iso_code":"bzl","name":"Boano (Sulawesi, Indonesia)","speakers":1631,"risk":"at_risk","series_type":"scenario","family_root":"Austronesian","latitude_map":0.44,"longitude_map":120.954},{"iso_code":"bgb","name":"Bobongko","speakers":1041,"risk":"at_risk","series_type":"scenario","family_root":"Austronesian","latitude_map":-0.36759,"longitude_map":121.922},{"iso_code":"sab","name":"Bocotá","speakers":1735,"risk":"at_risk","series_type":"scenario","family_root":"Chibchan","latitude_map":8.5,"longitude_map":-81.25},{"iso_code":"mym-bod","name":"Bodi","speakers":3812,"risk":"at_risk","series_type":"scenario","family_root":"Surmic","latitude_map":6.402267,"longitude_map":36.005147},{"iso_code":"boy","name":"Bodo","speakers":null,"risk":"lost","series_type":"scenario","family_root":"Niger-Congo","latitude_map":6.0,"longitude_map":26.0},{"iso_code":"boq","name":"Bogaya","speakers":208,"risk":"at_risk","series_type":"scenario","family_root":"Isolate","latitude_map":-5.54,"longitude_map":142.25},{"iso_code":"bqu","name":"Boguru","speakers":173,"risk":"at_risk","series_type":"scenario","family_root":"Niger-Congo","latitude_map":4.3902,"longitude_map":29.2016},{"iso_code":"bhn, hrt","name":"Bohtan Neo-Aramaic","speakers":417,"risk":"at_risk","series_type":"scenario","family_root":"Afro-Asiatic","latitude_map":41.5579,"longitude_map":45.0219},{"iso_code":"bzf","name":"Boiken","speakers":29365,"risk":"at_risk","series_type":"scenario","family_root":"Sepik","latitude_map":-3.25,"longitude_map":143.25},{"iso_code":"adi-bok","name":"Bokar","speakers":2919,"risk":"at_risk","series_type":"scenario","family_root":"Sino-Tibetan","latitude_map":28.8735,"longitude_map":94.3807},{"iso_code":"bnp","name":"Bola","speakers":11428,"risk":"at_risk","series_type":"scenario","family_root":"Austronesian","latitude_map":-5.445211,"longitude_map":150.028967},{"iso_code":"quh","name":"Bolivian Quechua","speakers":3210028,"risk":"alive","series_type":"scenario","family_root":"Quechuan","latitude_map":-20.92,"longitude_map":-66.33},{"iso_code":"bvl","name":"Bolivian Sign Language","speakers":382,"risk":"at_risk","series_type":"scenario","family_root":"Sign Language","latitude_map":-16.499,"longitude_map":-68.146},{"iso_code":"bkt","name":"Boloki","speakers":2914,"risk":"at_risk","series_type":"scenario","family_root":"Niger-Congo","latitude_map":0.051498,"longitude_map":18.253733},{"iso_code":"bzm","name":"Bolondo","speakers":2082,"risk":"at_risk","series_type":"scenario","family_root":"Niger-Congo","latitude_map":2.46327,"longitude_map":19.6181},{"iso_code":"ply","name":"Bolyu","speakers":238,"risk":"at_risk","series_type":"scenario","family_root":"Austro-Asiatic","latitude_map":24.4871,"longitude_map":105.216},{"iso_code":"bmf","name":"Bom","speakers":261,"risk":"at_risk","series_type":"scenario","family_root":"Niger-Congo","latitude_map":7.3188,"longitude_map":-11.9915},{"iso_code":"bml","name":"Bomboli","speakers":1735,"risk":"at_risk","series_type":"scenario","family_root":"Niger-Congo","latitude_map":1.984789,"longitude_map":18.515156},{"iso_code":"glc","name":"Bon Gula","speakers":1041,"risk":"at_risk","series_type":"scenario","family_root":"Niger-Congo","latitude_map":10.6577,"longitude_map":19.5774},{"iso_code":"bou","name":"Bondei","speakers":66731,"risk":"at_risk","series_type":"scenario","family_root":"Niger-Congo","latitude_map":-5.10749,"longitude_map":38.5079},{"iso_code":"dbu","name":"Bondu So","speakers":20603,"risk":"at_risk","series_type":"scenario","family_root":"Niger-Congo","latitude_map":14.91,"longitude_map":-3.33},{"iso_code":"bna","name":"Bonerate","speakers":3816,"risk":"at_risk","series_type":"scenario","family_root":"Austronesian","latitude_map":-7.322884,"longitude_map":121.09935},{"iso_code":"bnv","name":"Bonerif","speakers":null,"risk":"lost","series_type":"scenario","family_root":"Orya-Tor","latitude_map":-2.1088,"longitude_map":139.2352},{"iso_code":"bpg","name":"Bonggo","speakers":206,"risk":"at_risk","series_type":"scenario","family_root":"Austronesian","latitude_map":-2.2461,"longitude_map":139.5208},{"iso_code":"bot","name":"Bongo","speakers":8425,"risk":"at_risk","series_type":"scenario","family_root":"Central Sudanic","latitude_map":7.5,"longitude_map":28.5},{"iso_code":"bok","name":"Bonjo","speakers":1735,"risk":"at_risk","series_type":"scenario","family_root":"Niger-Congo","latitude_map":1.7712,"longitude_map":17.9598},{"iso_code":"bop","name":"Bonkiman","speakers":125,"risk":"at_risk","series_type":"scenario","family_root":"Trans-New Guinea","latitude_map":-5.852376,"longitude_map":146.691985},{"iso_code":"bnl","name":"Boon","speakers":28,"risk":"at_risk","series_type":"scenario","family_root":"Afro-Asiatic","latitude_map":0.151042,"longitude_map":42.901089},{"iso_code":"0hq","name":"Boonwurrung","speakers":null,"risk":"unknown","series_type":"scenario","family_root":"Pama-Nyungan","latitude_map":-38.446322,"longitude_map":145.836993},{"iso_code":"bvf","name":"Boor","speakers":24,"risk":"at_risk","series_type":"scenario","family_root":"Afro-Asiatic","latitude_map":10.2149,"longitude_map":17.3721},{"iso_code":"boa","name":"Bora","speakers":1190,"risk":"at_risk","series_type":"scenario","family_root":"Boran","latitude_map":-1.5818,"longitude_map":-70.5651},{"iso_code":"gai","name":"Borei","speakers":834,"risk":"at_risk","series_type":"scenario","family_root":"Lower Sepik-Ramu","latitude_map":-4.09,"longitude_map":144.72},{"iso_code":"adi-bor","name":"Bori","speakers":1668,"risk":"at_risk","series_type":"scenario","family_root":"Sino-Tibetan","latitude_map":28.9889,"longitude_map":94.4439},{"iso_code":"bwo","name":"Boró","speakers":2775,"risk":"at_risk","series_type":"scenario","family_root":"Afro-Asiatic","latitude_map":10.3581,"longitude_map":35.0024},{"iso_code":"bor","name":"Bororo","speakers":966,"risk":"at_risk","series_type":"scenario","family_root":"Bororoan","latitude_map":-16.0,"longitude_map":-57.0},{"iso_code":"brn","name":"Boruca","speakers":null,"risk":"unknown","series_type":"scenario","family_root":"Chibchan","latitude_map":8.833333,"longitude_map":-83.25},{"iso_code":"bwf","name":"Boselewa","speakers":173,"risk":"at_risk","series_type":"scenario","family_root":"Austronesian","latitude_map":-9.449,"longitude_map":150.661},{"iso_code":"bqs","name":"Bosmun","speakers":613,"risk":"at_risk","series_type":"scenario","family_root":"Lower Sepik-Ramu","latitude_map":-4.16,"longitude_map":144.65},{"iso_code":"bmj","name":"Bote-Majhi","speakers":20573,"risk":"at_risk","series_type":"scenario","family_root":"Indo-European","latitude_map":27.9208,"longitude_map":83.5082},{"iso_code":"bph","name":"Botlikh","speakers":4510,"risk":"at_risk","series_type":"scenario","family_root":"Northeast Caucasian","latitude_map":42.3917,"longitude_map":46.1351},{"iso_code":"zaz-bot","name":"Boto","speakers":417,"risk":"at_risk","series_type":"scenario","family_root":"Afro-Asiatic","latitude_map":9.733333,"longitude_map":9.233333},{"iso_code":"mvt","name":"Botovro","speakers":298,"risk":"at_risk","series_type":"scenario","family_root":"Austronesian","latitude_map":-15.92772,"longitude_map":167.279892},{"iso_code":"aof","name":"Bragat","speakers":246,"risk":"at_risk","series_type":"scenario","family_root":"Torricelli","latitude_map":-3.49,"longitude_map":142.5},{"iso_code":"brq","name":"Breri","speakers":500,"risk":"at_risk","series_type":"scenario","family_root":"Lower Sepik-Ramu","latitude_map":-4.73,"longitude_map":144.71},{"iso_code":"bre","name":"Breton","speakers":171831,"risk":"at_risk","series_type":"scenario","family_root":"Indo-European","latitude_map":48.2246,"longitude_map":-3.9331},{"iso_code":"bzd","name":"Bribri","speakers":5186,"risk":"at_risk","series_type":"scenario","family_root":"Chibchan","latitude_map":9.4813,"longitude_map":-82.6174},{"iso_code":"1ku","name":"Bribri Sign Language","speakers":334,"risk":"at_risk","series_type":"scenario","family_root":"Sign Language","latitude_map":9.4,"longitude_map":-83.05},{"iso_code":"bro","name":"Brokkat","speakers":208,"risk":"at_risk","series_type":"scenario","family_root":"Sino-Tibetan","latitude_map":27.5618,"longitude_map":90.6152},{"iso_code":"sgt","name":"Brokpake","speakers":1735,"risk":"at_risk","series_type":"scenario","family_root":"Sino-Tibetan","latitude_map":27.3766,"longitude_map":91.9981},{"iso_code":"bkk","name":"Brokskat","speakers":2082,"risk":"at_risk","series_type":"scenario","family_root":"Indo-European","latitude_map":34.6478,"longitude_map":76.4978},{"iso_code":"1kv","name":"Brunca Sign Language","speakers":674,"risk":"at_risk","series_type":"scenario","family_root":"Sign Language","latitude_map":8.833333,"longitude_map":-83.25},{"iso_code":"jid","name":"Bu","speakers":5005,"risk":"at_risk","series_type":"scenario","family_root":"Niger-Congo","latitude_map":9.010046,"longitude_map":8.607016},{"iso_code":"xbg","name":"Buandig","speakers":null,"risk":"unknown","series_type":"scenario","family_root":"Pama-Nyungan","latitude_map":-37.53325,"longitude_map":140.745717},{"iso_code":"bbx","name":"Bubia","speakers":286,"risk":"at_risk","series_type":"scenario","family_root":"Niger-Congo","latitude_map":4.0204,"longitude_map":9.2037},{"iso_code":"btp","name":"Budibud","speakers":83,"risk":"at_risk","series_type":"scenario","family_root":"Austronesian","latitude_map":-9.2973,"longitude_map":153.6891},{"iso_code":"bdx","name":"Budong-Budong","speakers":24,"risk":"at_risk","series_type":"scenario","family_root":"Austronesian","latitude_map":-2.0601,"longitude_map":119.3074},{"iso_code":"bdk","name":"Budukh","speakers":3816,"risk":"at_risk","series_type":"scenario","family_root":"Northeast Caucasian","latitude_map":41.1207,"longitude_map":48.3233},{"iso_code":"bdm","name":"Buduma","speakers":45710,"risk":"at_risk","series_type":"scenario","family_root":"Afro-Asiatic","latitude_map":13.5,"longitude_map":14.5},{"iso_code":"bbh","name":"Bugan","speakers":2252,"risk":"at_risk","series_type":"scenario","family_root":"Austro-Asiatic","latitude_map":24.045941,"longitude_map":105.054981},{"iso_code":"buk","name":"Bugawac","speakers":6723,"risk":"at_risk","series_type":"scenario","family_root":"Austronesian","latitude_map":-6.728658,"longitude_map":147.360046},{"iso_code":"bgg","name":"Bugun","speakers":1180,"risk":"at_risk","series_type":"scenario","family_root":"Sino-Tibetan","latitude_map":27.2546,"longitude_map":92.5323},{"iso_code":"bhh","name":"Bukhori","speakers":91755,"risk":"at_risk","series_type":"scenario","family_root":"Indo-European","latitude_map":39.8043,"longitude_map":64.4224},{"iso_code":"ape","name":"Bukiyip","speakers":8326,"risk":"at_risk","series_type":"scenario","family_root":"Torricelli","latitude_map":-3.4256,"longitude_map":143.0886},{"iso_code":"bmp","name":"Bulgebi","speakers":24,"risk":"at_risk","series_type":"scenario","family_root":"Trans-New Guinea","latitude_map":-5.7485,"longitude_map":146.4532},{"iso_code":"sti","name":"Bulo Stieng","speakers":3816,"risk":"at_risk","series_type":"scenario","family_root":"Austro-Asiatic","latitude_map":11.833333,"longitude_map":106.75},{"iso_code":"bjl","name":"Bulu","speakers":631,"risk":"at_risk","series_type":"scenario","family_root":"Austronesian","latitude_map":-5.052719,"longitude_map":150.092506},{"iso_code":"bvp","name":"Bumang","speakers":139,"risk":"at_risk","series_type":"scenario","family_root":"Austro-Asiatic","latitude_map":22.661,"longitude_map":103.085},{"iso_code":"aon","name":"Bumbita","speakers":1633,"risk":"at_risk","series_type":"scenario","family_root":"Torricelli","latitude_map":-3.6449,"longitude_map":142.8002},{"iso_code":"buv","name":"Bun","speakers":135,"risk":"at_risk","series_type":"scenario","family_root":"Yuat","latitude_map":-4.52,"longitude_map":143.89},{"iso_code":"bvn","name":"Buna","speakers":874,"risk":"at_risk","series_type":"scenario","family_root":"Torricelli","latitude_map":-3.96,"longitude_map":144.12},{"iso_code":"bfn","name":"Bunak","speakers":83413,"risk":"at_risk","series_type":"scenario","family_root":"Timor-Alor-Pantar","latitude_map":-9.160082,"longitude_map":125.259737},{"iso_code":"bqd","name":"Bung","speakers":null,"risk":"lost","series_type":"scenario","family_root":"Niger-Congo","latitude_map":6.5718,"longitude_map":11.8267},{"iso_code":"but","name":"Bungain","speakers":1701,"risk":"at_risk","series_type":"scenario","family_root":"Torricelli","latitude_map":-3.7,"longitude_map":143.8},{"iso_code":"dgb","name":"Bunoge","speakers":694,"risk":"at_risk","series_type":"scenario","family_root":"Niger-Congo","latitude_map":14.650026,"longitude_map":-3.795884},{"iso_code":"bck","name":"Bunuba","speakers":26,"risk":"at_risk","series_type":"scenario","family_root":"Bunaban","latitude_map":-17.694198,"longitude_map":125.595082},{"iso_code":"bvr","name":"Burarra","speakers":347,"risk":"at_risk","series_type":"scenario","family_root":"Maningrida","latitude_map":-12.023347,"longitude_map":134.719515},{"iso_code":"bti","name":"Burate","speakers":69,"risk":"at_risk","series_type":"scenario","family_root":"East Geelvink Bay","latitude_map":-2.7811,"longitude_map":135.9915},{"iso_code":"bvh","name":"Bure","speakers":null,"risk":"lost","series_type":"scenario","family_root":"Afro-Asiatic","latitude_map":10.517012,"longitude_map":10.333315},{"iso_code":"hrv-bur","name":"Burgenland Croatian","speakers":23356,"risk":"at_risk","series_type":"scenario","family_root":"Indo-European","latitude_map":47.8435,"longitude_map":16.5179},{"iso_code":"bji","name":"Burji","speakers":38453,"risk":"at_risk","series_type":"scenario","family_root":"Afro-Asiatic","latitude_map":2.1857,"longitude_map":37.9248},{"iso_code":"vrt","name":"Burmbar","speakers":624,"risk":"at_risk","series_type":"scenario","family_root":"Austronesian","latitude_map":-16.42,"longitude_map":167.73},{"iso_code":"bzu","name":"Burmeso","speakers":173,"risk":"at_risk","series_type":"scenario","family_root":"Isolate","latitude_map":-2.48,"longitude_map":138.2},{"iso_code":"bry","name":"Burui","speakers":104,"risk":"at_risk","series_type":"scenario","family_root":"Sepik","latitude_map":-4.04,"longitude_map":143.01},{"iso_code":"aip","name":"Burumakok","speakers":19,"risk":"at_risk","series_type":"scenario","family_root":"Trans-New Guinea","latitude_map":-5.12,"longitude_map":140.03},{"iso_code":"bds","name":"Burunge","speakers":381,"risk":"at_risk","series_type":"scenario","family_root":"Afro-Asiatic","latitude_map":-4.7297,"longitude_map":35.7769},{"iso_code":"bsk","name":"Burushaski","speakers":69592,"risk":"at_risk","series_type":"scenario","family_root":"Isolate","latitude_map":36.218067,"longitude_map":74.822003},{"iso_code":"bhf","name":"Busa","speakers":167,"risk":"at_risk","series_type":"scenario","family_root":"Isolate","latitude_map":-3.86,"longitude_map":141.42},{"iso_code":"bso","name":"Buso","speakers":21,"risk":"at_risk","series_type":"scenario","family_root":"Afro-Asiatic","latitude_map":12.5008,"longitude_map":17.6011},{"iso_code":"bup","name":"Busoa","speakers":590,"risk":"at_risk","series_type":"scenario","family_root":"Austronesian","latitude_map":-5.551441,"longitude_map":122.604769},{"iso_code":"dox","name":"Bussa","speakers":1041,"risk":"at_risk","series_type":"scenario","family_root":"Afro-Asiatic","latitude_map":5.7225,"longitude_map":37.1406},{"iso_code":"bju","name":"Busuu","speakers":null,"risk":"lost","series_type":"scenario","family_root":"Niger-Congo","latitude_map":6.8282,"longitude_map":10.1087},{"iso_code":"bnr","name":"Butmas-Tur","speakers":361,"risk":"at_risk","series_type":"scenario","family_root":"Austronesian","latitude_map":-15.338309,"longitude_map":167.106526},{"iso_code":"8uu","name":"Buu (Cameroon)","speakers":125,"risk":"at_risk","series_type":"scenario","family_root":"Niger-Congo","latitude_map":6.56465,"longitude_map":10.25515},{"iso_code":"gji-zar","name":"Buu (Nigeria)","speakers":500,"risk":"at_risk","series_type":"scenario","family_root":"Afro-Asiatic","latitude_map":9.57,"longitude_map":10.28},{"iso_code":"jiy","name":"Buyuan Jinuo","speakers":694,"risk":"at_risk","series_type":"scenario","family_root":"Sino-Tibetan","latitude_map":22.0,"longitude_map":101.0},{"iso_code":"bwa","name":"Bwatoo","speakers":208,"risk":"at_risk","series_type":"scenario","family_root":"Austronesian","latitude_map":-21.039,"longitude_map":164.697},{"iso_code":"bwz","name":"Bwisi","speakers":2949,"risk":"at_risk","series_type":"scenario","family_root":"Niger-Congo","latitude_map":-3.5572,"longitude_map":11.4477},{"iso_code":"bee","name":"Byangsi","speakers":1041,"risk":"at_risk","series_type":"scenario","family_root":"Sino-Tibetan","latitude_map":30.0595,"longitude_map":80.7824},{"iso_code":"cra","name":"C'ara","speakers":4810,"risk":"at_risk","series_type":"scenario","family_root":"Afro-Asiatic","latitude_map":6.479,"longitude_map":36.3647},{"iso_code":"msq","name":"Caac","speakers":1537,"risk":"at_risk","series_type":"scenario","family_root":"Austronesian","latitude_map":-20.225,"longitude_map":164.3545},{"iso_code":"cjp","name":"Cabécar","speakers":5857,"risk":"at_risk","series_type":"scenario","family_root":"Chibchan","latitude_map":9.75,"longitude_map":-83.416667},{"iso_code":"cbb","name":"Cabiyarí","speakers":382,"risk":"at_risk","series_type":"scenario","family_root":"Arawakan","latitude_map":0.1208,"longitude_map":-71.1474},{"iso_code":"cad","name":"Caddo","speakers":null,"risk":"lost","series_type":"scenario","family_root":"Caddoan","latitude_map":35.0985,"longitude_map":-98.2603},{"iso_code":"cah","name":"Cahuarano","speakers":null,"risk":"lost","series_type":"scenario","family_root":"Zaparoan","latitude_map":-3.728803,"longitude_map":-73.920783},{"iso_code":"chl","name":"Cahuilla","speakers":14,"risk":"at_risk","series_type":"scenario","family_root":"Uto-Aztecan","latitude_map":33.5404,"longitude_map":-116.7436},{"iso_code":"qvc","name":"Cajamarca Quechua","speakers":20815,"risk":"at_risk","series_type":"scenario","family_root":"Quechuan","latitude_map":-7.158438,"longitude_map":-78.51262},{"iso_code":"abd","name":"Camarines Norte Agta","speakers":3337,"risk":"at_risk","series_type":"scenario","family_root":"Austronesian","latitude_map":14.2,"longitude_map":122.383},{"iso_code":"4rr","name":"Cambodian Sign Language","speakers":1251,"risk":"at_risk","series_type":"scenario","family_root":"Sign Language","latitude_map":11.558,"longitude_map":104.917},{"iso_code":"rab","name":"Camling","speakers":25024,"risk":"at_risk","series_type":"scenario","family_root":"Sino-Tibetan","latitude_map":27.0,"longitude_map":86.666667},{"iso_code":"sro","name":"Campidanese Sardinian","speakers":417066,"risk":"at_risk","series_type":"scenario","family_root":"Indo-European","latitude_map":40.0,"longitude_map":9.0},{"iso_code":"kbh","name":"Camsá","speakers":3312,"risk":"at_risk","series_type":"scenario","family_root":"Isolate","latitude_map":0.8788,"longitude_map":-76.7724},{"iso_code":"cbu","name":"Candoshi","speakers":1429,"risk":"at_risk","series_type":"scenario","family_root":"Isolate","latitude_map":-3.7107,"longitude_map":-76.9042},{"iso_code":"ram","name":"Canela","speakers":1736,"risk":"at_risk","series_type":"scenario","family_root":"Jean","latitude_map":-7.0,"longitude_map":-45.0},{"iso_code":"caz","name":"Canichana","speakers":null,"risk":"lost","series_type":"scenario","family_root":"Isolate","latitude_map":-14.5835,"longitude_map":-64.9731},{"iso_code":"cpg","name":"Cappadocian Greek","speakers":381,"risk":"at_risk","series_type":"scenario","family_root":"Indo-European","latitude_map":38.048,"longitude_map":32.6953},{"iso_code":"cot","name":"Caquinte","speakers":229,"risk":"at_risk","series_type":"scenario","family_root":"Arawakan","latitude_map":-11.146,"longitude_map":-73.4765},{"iso_code":"caq","name":"Car Nicobarese","speakers":30863,"risk":"at_risk","series_type":"scenario","family_root":"Austro-Asiatic","latitude_map":9.0,"longitude_map":93.0},{"iso_code":"cfd","name":"Cara","speakers":1041,"risk":"at_risk","series_type":"scenario","family_root":"Niger-Congo","latitude_map":10.103839,"longitude_map":12.652185},{"iso_code":"cby","name":"Carabayo","speakers":null,"risk":"unknown","series_type":"scenario","family_root":"Not recorded","latitude_map":-1.6666,"longitude_map":-70.3333},{"iso_code":"cbc","name":"Carapana","speakers":366,"risk":"at_risk","series_type":"scenario","family_root":"Tucanoan","latitude_map":0.9337,"longitude_map":-70.8178},{"iso_code":"cbd","name":"Carijona","speakers":null,"risk":"lost","series_type":"scenario","family_root":"Cariban","latitude_map":-1.2743,"longitude_map":-70.1147},{"iso_code":"cal","name":"Carolinian","speakers":2151,"risk":"at_risk","series_type":"scenario","family_root":"Austronesian","latitude_map":15.2,"longitude_map":145.75},{"iso_code":"rmc","name":"Carpathian Romani","speakers":394102,"risk":"at_risk","series_type":"scenario","family_root":"Indo-European","latitude_map":46.3165,"longitude_map":22.3681},{"iso_code":"cbr","name":"Cashibo","speakers":1318,"risk":"at_risk","series_type":"scenario","family_root":"Pano-Tacanan","latitude_map":-8.9393,"longitude_map":-75.0915},{"iso_code":"cbs","name":"Cashinahua","speakers":3645,"risk":"at_risk","series_type":"scenario","family_root":"Pano-Tacanan","latitude_map":-10.3581,"longitude_map":-71.5869},{"iso_code":"dgc","name":"Casiguran Dumagat Agta","speakers":416,"risk":"at_risk","series_type":"scenario","family_root":"Austronesian","latitude_map":16.227,"longitude_map":122.063},{"iso_code":"csc","name":"Catalan Sign Language","speakers":15014,"risk":"at_risk","series_type":"scenario","family_root":"Sign Language","latitude_map":41.387113,"longitude_map":2.176666},{"iso_code":"chc","name":"Catawba","speakers":null,"risk":"unknown","series_type":"scenario","family_root":"Siouan","latitude_map":35.5,"longitude_map":-80.5},{"iso_code":"cav","name":"Cavineña","speakers":624,"risk":"at_risk","series_type":"scenario","family_root":"Pano-Tacanan","latitude_map":-12.3829,"longitude_map":-66.7419},{"iso_code":"cay","name":"Cayuga","speakers":48,"risk":"at_risk","series_type":"scenario","family_root":"Iroquoian","latitude_map":43.019,"longitude_map":-80.1506},{"iso_code":"cyb","name":"Cayuvava","speakers":null,"risk":"lost","series_type":"scenario","family_root":"Isolate","latitude_map":-12.7903,"longitude_map":-65.3247},{"iso_code":"esu","name":"Central Alaskan Yup'ik","speakers":7216,"risk":"at_risk","series_type":"scenario","family_root":"Eskimo-Aleut","latitude_map":61.4387,"longitude_map":-160.4882},{"iso_code":"mks, mxa","name":"Central Baja Mixtec","speakers":20128,"risk":"at_risk","series_type":"scenario","family_root":"Otomanguean","latitude_map":17.77,"longitude_map":-98.08},{"iso_code":"agt","name":"Central Cagayan Agta","speakers":541,"risk":"at_risk","series_type":"scenario","family_root":"Austronesian","latitude_map":17.966667,"longitude_map":121.833333},{"iso_code":"cuc, cvn, csa, cle, cpa","name":"Central Chinantec","speakers":29071,"risk":"at_risk","series_type":"scenario","family_root":"Otomanguean","latitude_map":17.949463,"longitude_map":-96.167328},{"iso_code":"0xp","name":"Central Jewish Neo-Aramaic","speakers":null,"risk":"unknown","series_type":"scenario","family_root":"Afro-Asiatic","latitude_map":36.55,"longitude_map":44.2},{"iso_code":"ywt","name":"Central Lalo","speakers":250240,"risk":"at_risk","series_type":"scenario","family_root":"Sino-Tibetan","latitude_map":25.227212,"longitude_map":100.307175},{"iso_code":"cmo","name":"Central Mnong","speakers":43792,"risk":"at_risk","series_type":"scenario","family_root":"Austro-Asiatic","latitude_map":12.5525,"longitude_map":107.3011},{"iso_code":"ncb","name":"Central Nicobarese","speakers":8425,"risk":"at_risk","series_type":"scenario","family_root":"Austro-Asiatic","latitude_map":8.05,"longitude_map":93.5},{"iso_code":"poo","name":"Central Pomo","speakers":null,"risk":"lost","series_type":"scenario","family_root":"Pomoan","latitude_map":38.9704,"longitude_map":-123.6893},{"iso_code":"1op","name":"Central Selkup","speakers":null,"risk":"lost","series_type":"scenario","family_root":"Uralic","latitude_map":59.8903,"longitude_map":82.0129},{"iso_code":"ess","name":"Central Siberian Yupik","speakers":1180,"risk":"at_risk","series_type":"scenario","family_root":"Eskimo-Aleut","latitude_map":63.7444,"longitude_map":-171.7242},{"iso_code":"tgt","name":"Central Tagbanwa","speakers":347,"risk":"at_risk","series_type":"scenario","family_root":"Austronesian","latitude_map":10.771254,"longitude_map":119.377441},{"iso_code":"cet","name":"Centúúm","speakers":26,"risk":"at_risk","series_type":"scenario","family_root":"Isolate","latitude_map":9.88904,"longitude_map":11.751045},{"iso_code":"caa","name":"Ch'orti'","speakers":6317,"risk":"at_risk","series_type":"scenario","family_root":"Mayan","latitude_map":14.9364,"longitude_map":-88.865},{"iso_code":"cbi","name":"Cha'palaa","speakers":5273,"risk":"at_risk","series_type":"scenario","family_root":"Barbacoan","latitude_map":0.9386,"longitude_map":-79.0055},{"iso_code":"quk","name":"Chachapoyas Quechua","speakers":4857,"risk":"at_risk","series_type":"scenario","family_root":"Quechuan","latitude_map":-6.197247,"longitude_map":-77.830093},{"iso_code":"cao","name":"Chácobo","speakers":1084,"risk":"at_risk","series_type":"scenario","family_root":"Pano-Tacanan","latitude_map":-11.78,"longitude_map":-66.35},{"iso_code":"ciy, cuo","name":"Chaima","speakers":93,"risk":"at_risk","series_type":"scenario","family_root":"Cariban","latitude_map":8.4941,"longitude_map":-64.0942},{"iso_code":"cli","name":"Chakali","speakers":3469,"risk":"at_risk","series_type":"scenario","family_root":"Niger-Congo","latitude_map":9.823968,"longitude_map":-1.988876},{"iso_code":"cll","name":"Chala","speakers":2082,"risk":"at_risk","series_type":"scenario","family_root":"Niger-Congo","latitude_map":8.00089,"longitude_map":0.50896},{"iso_code":"tgf","name":"Chalikha","speakers":694,"risk":"at_risk","series_type":"scenario","family_root":"Sino-Tibetan","latitude_map":27.301,"longitude_map":91.2991},{"iso_code":"ceg","name":"Chamacoco","speakers":902,"risk":"at_risk","series_type":"scenario","family_root":"Zamucoan","latitude_map":-20.59,"longitude_map":-58.2},{"iso_code":"cji","name":"Chamalal","speakers":6245,"risk":"at_risk","series_type":"scenario","family_root":"Northeast Caucasian","latitude_map":42.3928,"longitude_map":45.5626},{"iso_code":"cdh","name":"Chambeali","speakers":108149,"risk":"at_risk","series_type":"scenario","family_root":"Indo-European","latitude_map":32.9072,"longitude_map":76.5307},{"iso_code":"can","name":"Chambri","speakers":729,"risk":"at_risk","series_type":"scenario","family_root":"Lower Sepik-Ramu","latitude_map":-4.28,"longitude_map":143.1},{"iso_code":"ccc","name":"Chamicuro","speakers":null,"risk":"lost","series_type":"scenario","family_root":"Arawakan","latitude_map":-5.5285,"longitude_map":-75.5969},{"iso_code":"cha","name":"Chamorro","speakers":26123,"risk":"at_risk","series_type":"scenario","family_root":"Austronesian","latitude_map":13.4323,"longitude_map":144.7338},{"iso_code":"cga","name":"Changriwa","speakers":346,"risk":"at_risk","series_type":"scenario","family_root":"Yuat","latitude_map":-4.28,"longitude_map":143.7},{"iso_code":"chx","name":"Chantyal","speakers":1388,"risk":"at_risk","series_type":"scenario","family_root":"Sino-Tibetan","latitude_map":28.4493,"longitude_map":83.4054},{"iso_code":"1iu","name":"Chatong","speakers":484,"risk":"at_risk","series_type":"scenario","family_root":"Austro-Asiatic","latitude_map":15.65,"longitude_map":107.1166},{"iso_code":"cdn","name":"Chaudangsi","speakers":1214,"risk":"at_risk","series_type":"scenario","family_root":"Sino-Tibetan","latitude_map":29.7,"longitude_map":80.48},{"iso_code":"crv","name":"Chaura","speakers":1402,"risk":"at_risk","series_type":"scenario","family_root":"Austro-Asiatic","latitude_map":7.9504,"longitude_map":93.576},{"iso_code":"cbt","name":"Chayahuita","speakers":9509,"risk":"at_risk","series_type":"scenario","family_root":"Cahuapanan","latitude_map":-5.3425,"longitude_map":-76.6955},{"iso_code":"cjn","name":"Chenapian","speakers":125,"risk":"at_risk","series_type":"scenario","family_root":"Sepik","latitude_map":-4.273583,"longitude_map":142.268448},{"iso_code":"cnu","name":"Chenoua","speakers":63644,"risk":"at_risk","series_type":"scenario","family_root":"Afro-Asiatic","latitude_map":36.5703,"longitude_map":2.2892},{"iso_code":"cdm","name":"Chepang","speakers":20934,"risk":"at_risk","series_type":"scenario","family_root":"Sino-Tibetan","latitude_map":27.7552,"longitude_map":84.8144},{"iso_code":"ycp","name":"Chepya","speakers":1388,"risk":"at_risk","series_type":"scenario","family_root":"Sino-Tibetan","latitude_map":21.3833,"longitude_map":101.8166},{"iso_code":"ych","name":"Chesu","speakers":2290,"risk":"at_risk","series_type":"scenario","family_root":"Sino-Tibetan","latitude_map":24.4211,"longitude_map":102.0459},{"iso_code":"cwg","name":"Chewong","speakers":190,"risk":"at_risk","series_type":"scenario","family_root":"Austro-Asiatic","latitude_map":3.6271,"longitude_map":102.1907},{"iso_code":"chy","name":"Cheyenne","speakers":1457,"risk":"at_risk","series_type":"scenario","family_root":"Algic","latitude_map":45.5495,"longitude_map":-106.5263},{"iso_code":"ctn","name":"Chhintange","speakers":2428,"risk":"at_risk","series_type":"scenario","family_root":"Sino-Tibetan","latitude_map":26.9367,"longitude_map":87.1991},