{
    "year": 2045,
    "language_count": 3371,
    "languages": [
        {
            "iso_code": "knw",
            "name": "!Xun",
            "speakers": 11649,
            "risk": "vulnerable",
            "series_type": "scenario",
            "family_root": "Kx'a",
            "latitude_map": -28.74358,
            "longitude_map": 23.983154,
            "vitality_group": "watch",
            "vitality_reason": "-1.5%/yr 2044→2045, 11649 speakers → vulnerable",
            "trend_confidence": "high"
        },
        {
            "iso_code": "bpk",
            "name": "'Ôrôê",
            "speakers": 311,
            "risk": "at_risk",
            "series_type": "scenario",
            "family_root": "Austronesian",
            "latitude_map": -21.4223,
            "longitude_map": 165.4678,
            "vitality_group": "serious",
            "vitality_reason": "-3.1%/yr 2044→2045, 311 speakers → at_risk",
            "trend_confidence": "high"
        },
        {
            "iso_code": "taa",
            "name": "(Lower) Tanana",
            "speakers": null,
            "risk": "lost",
            "series_type": "scenario",
            "family_root": "Athabaskan-Eyak-Tlingit",
            "latitude_map": 64.605,
            "longitude_map": -149.0625,
            "vitality_group": "gone",
            "vitality_reason": "+0.0%/yr 2037→2038, 11 speakers → lost",
            "trend_confidence": "high"
        },
        {
            "iso_code": "hnh",
            "name": "||Ani",
            "speakers": 527,
            "risk": "at_risk",
            "series_type": "scenario",
            "family_root": "Khoe",
            "latitude_map": -18.6462,
            "longitude_map": 22.1319,
            "vitality_group": "serious",
            "vitality_reason": "-3.1%/yr 2044→2045, 527 speakers → at_risk",
            "trend_confidence": "high"
        },
        {
            "iso_code": "gnk",
            "name": "||Gana",
            "speakers": 543,
            "risk": "at_risk",
            "series_type": "scenario",
            "family_root": "Khoe",
            "latitude_map": -21.7824,
            "longitude_map": 21.8971,
            "vitality_group": "serious",
            "vitality_reason": "-3.0%/yr 2044→2045, 543 speakers → at_risk",
            "trend_confidence": "high"
        },
        {
            "iso_code": "gwj",
            "name": "|Gui",
            "speakers": 775,
            "risk": "at_risk",
            "series_type": "scenario",
            "family_root": "Khoe",
            "latitude_map": -22.118722,
            "longitude_map": 22.415146,
            "vitality_group": "serious",
            "vitality_reason": "-3.0%/yr 2044→2045, 775 speakers → at_risk",
            "trend_confidence": "high"
        },
        {
            "iso_code": "con",
            "name": "A'ingae",
            "speakers": 1092,
            "risk": "vulnerable",
            "series_type": "scenario",
            "family_root": "Isolate",
            "latitude_map": 0.054639,
            "longitude_map": -77.409417,
            "vitality_group": "watch",
            "vitality_reason": "-1.5%/yr 2044→2045, 1092 speakers → vulnerable",
            "trend_confidence": "high"
        },
        {
            "iso_code": "aas",
            "name": "Aasáx",
            "speakers": null,
            "risk": "unknown",
            "series_type": "scenario",
            "family_root": "Afro-Asiatic",
            "latitude_map": -5.1948,
            "longitude_map": 37.738,
            "vitality_group": "unknown",
            "vitality_reason": "no speaker data",
            "trend_confidence": "low"
        },
        {
            "iso_code": "abg",
            "name": "Abaga",
            "speakers": null,
            "risk": "lost",
            "series_type": "scenario",
            "family_root": "Nuclear Trans-New Guinea",
            "latitude_map": -6.12,
            "longitude_map": 145.66,
            "vitality_group": "gone",
            "vitality_reason": "+0.0%/yr 2023→2024, 5 speakers → lost",
            "trend_confidence": "high"
        },
        {
            "iso_code": "abf",
            "name": "Abai Sungai",
            "speakers": 132,
            "risk": "vulnerable",
            "series_type": "scenario",
            "family_root": "Austronesian",
            "latitude_map": 5.587,
            "longitude_map": 118.3695,
            "vitality_group": "watch",
            "vitality_reason": "-2.9%/yr 2044→2045, 132 speakers → vulnerable",
            "trend_confidence": "high"
        },
        {
            "iso_code": "aau",
            "name": "Abau",
            "speakers": 3692,
            "risk": "at_risk",
            "series_type": "scenario",
            "family_root": "Sepik",
            "latitude_map": -3.97,
            "longitude_map": 141.32,
            "vitality_group": "serious",
            "vitality_reason": "-3.0%/yr 2044→2045, 3692 speakers → at_risk",
            "trend_confidence": "high"
        },
        {
            "iso_code": "abq",
            "name": "Abaza",
            "speakers": 34859,
            "risk": "vulnerable",
            "series_type": "scenario",
            "family_root": "Northwest Caucasian",
            "latitude_map": 44.1556,
            "longitude_map": 41.9368,
            "vitality_group": "watch",
            "vitality_reason": "-1.5%/yr 2044→2045, 34859 speakers → vulnerable",
            "trend_confidence": "high"
        },
        {
            "iso_code": "abp",
            "name": "Abellen Ayta",
            "speakers": 1846,
            "risk": "vulnerable",
            "series_type": "scenario",
            "family_root": "Austronesian",
            "latitude_map": 15.35,
            "longitude_map": 120.457,
            "vitality_group": "watch",
            "vitality_reason": "-3.0%/yr 2044→2045, 1846 speakers → vulnerable",
            "trend_confidence": "high"
        },
        {
            "iso_code": "bsa",
            "name": "Abinomn",
            "speakers": 14,
            "risk": "critical",
            "series_type": "scenario",
            "family_root": "Isolate",
            "latitude_map": -2.92,
            "longitude_map": 138.89,
            "vitality_group": "serious",
            "vitality_reason": "-6.7%/yr 2044→2045, 14 speakers → critical",
            "trend_confidence": "high"
        },
        {
            "iso_code": "aob",
            "name": "Abom",
            "speakers": null,
            "risk": "lost",
            "series_type": "scenario",
            "family_root": "Trans-New Guinea",
            "latitude_map": -8.424996,
            "longitude_map": 142.930359,
            "vitality_group": "gone",
            "vitality_reason": "-9.1%/yr 2029→2030, 10 speakers → lost",
            "trend_confidence": "high"
        },
        {
            "iso_code": "ado",
            "name": "Abu",
            "speakers": 1238,
            "risk": "vulnerable",
            "series_type": "scenario",
            "family_root": "Lower Sepik-Ramu",
            "latitude_map": -4.24,
            "longitude_map": 144.47,
            "vitality_group": "watch",
            "vitality_reason": "-3.0%/yr 2044→2045, 1238 speakers → vulnerable",
            "trend_confidence": "high"
        },
        {
            "iso_code": "aah",
            "name": "Abu'",
            "speakers": 1350,
            "risk": "at_risk",
            "series_type": "scenario",
            "family_root": "Torricelli",
            "latitude_map": -3.461612,
            "longitude_map": 142.917031,
            "vitality_group": "serious",
            "vitality_reason": "-3.0%/yr 2044→2045, 1350 speakers → at_risk",
            "trend_confidence": "high"
        },
        {
            "iso_code": "abz",
            "name": "Abui",
            "speakers": 8440,
            "risk": "vulnerable",
            "series_type": "scenario",
            "family_root": "Timor-Alor-Pantar",
            "latitude_map": -8.25,
            "longitude_map": 124.666667,
            "vitality_group": "watch",
            "vitality_reason": "-3.0%/yr 2044→2045, 8440 speakers → vulnerable",
            "trend_confidence": "high"
        },
        {
            "iso_code": "kgr",
            "name": "Abun",
            "speakers": 1582,
            "risk": "at_risk",
            "series_type": "scenario",
            "family_root": "Isolate",
            "latitude_map": -0.52,
            "longitude_map": 132.19,
            "vitality_group": "serious",
            "vitality_reason": "-3.0%/yr 2044→2045, 1582 speakers → at_risk",
            "trend_confidence": "high"
        },
        {
            "iso_code": "aca",
            "name": "Achagua",
            "speakers": 149,
            "risk": "at_risk",
            "series_type": "scenario",
            "family_root": "Arawakan",
            "latitude_map": 4.434,
            "longitude_map": -70.8837,
            "vitality_group": "serious",
            "vitality_reason": "-3.2%/yr 2044→2045, 149 speakers → at_risk",
            "trend_confidence": "high"
        },
        {
            "iso_code": "guq",
            "name": "Aché",
            "speakers": 55,
            "risk": "at_risk",
            "series_type": "scenario",
            "family_root": "Tupian",
            "latitude_map": -25.25,
            "longitude_map": -55.166667,
            "vitality_group": "serious",
            "vitality_reason": "-5.2%/yr 2044→2045, 55 speakers → at_risk",
            "trend_confidence": "high"
        },
        {
            "iso_code": "acz",
            "name": "Acheron",
            "speakers": 14561,
            "risk": "vulnerable",
            "series_type": "scenario",
            "family_root": "Niger-Congo",
            "latitude_map": 10.809,
            "longitude_map": 30.2453,
            "vitality_group": "watch",
            "vitality_reason": "-1.5%/yr 2044→2045, 14561 speakers → vulnerable",
            "trend_confidence": "high"
        },
        {
            "iso_code": "acr",
            "name": "Achi'",
            "speakers": 37562,
            "risk": "vulnerable",
            "series_type": "scenario",
            "family_root": "Mayan",
            "latitude_map": 15.0845,
            "longitude_map": -90.4888,
            "vitality_group": "watch",
            "vitality_reason": "-1.5%/yr 2044→2045, 37562 speakers → vulnerable",
            "trend_confidence": "high"
        },
        {
            "iso_code": "acu",
            "name": "Achuar",
            "speakers": 2871,
            "risk": "at_risk",
            "series_type": "scenario",
            "family_root": "Chicham family (Jivaroan)",
            "latitude_map": -2.876318,
            "longitude_map": -77.586775,
            "vitality_group": "serious",
            "vitality_reason": "-3.0%/yr 2044→2045, 2871 speakers → at_risk",
            "trend_confidence": "high"
        },
        {
            "iso_code": "acv",
            "name": "Achumawi",
            "speakers": null,
            "risk": "lost",
            "series_type": "scenario",
            "family_root": "Palaihnihan",
            "latitude_map": 41.320107,
            "longitude_map": -121.129761,
            "vitality_group": "gone",
            "vitality_reason": "+0.0%/yr 2023→2024, 5 speakers → lost",
            "trend_confidence": "high"
        },
        {
            "iso_code": "kjq",
            "name": "Acoma-Laguna",
            "speakers": 2110,
            "risk": "vulnerable",
            "series_type": "scenario",
            "family_root": "Keresan",
            "latitude_map": 34.8964,
            "longitude_map": -107.5816,
            "vitality_group": "watch",
            "vitality_reason": "-3.0%/yr 2044→2045, 2110 speakers → vulnerable",
            "trend_confidence": "high"
        },
        {
            "iso_code": "ads",
            "name": "Adamorobe Sign Language",
            "speakers": 18,
            "risk": "critical",
            "series_type": "scenario",
            "family_root": "Sign Language",
            "latitude_map": 5.859378,
            "longitude_map": -0.197951,
            "vitality_group": "serious",
            "vitality_reason": "-5.3%/yr 2044→2045, 18 speakers → critical",
            "trend_confidence": "high"
        },
        {
            "iso_code": "adn",
            "name": "Adang",
            "speakers": 3692,
            "risk": "at_risk",
            "series_type": "scenario",
            "family_root": "Timor-Alor-Pantar",
            "latitude_map": -8.195,
            "longitude_map": 124.484,
            "vitality_group": "serious",
            "vitality_reason": "-3.0%/yr 2044→2045, 3692 speakers → at_risk",
            "trend_confidence": "high"
        },
        {
            "iso_code": "tiu",
            "name": "Adasen Itneg",
            "speakers": 2110,
            "risk": "vulnerable",
            "series_type": "scenario",
            "family_root": "Austronesian",
            "latitude_map": 17.817292,
            "longitude_map": 120.936869,
            "vitality_group": "watch",
            "vitality_reason": "-3.0%/yr 2044→2045, 2110 speakers → vulnerable",
            "trend_confidence": "high"
        },
        {
            "iso_code": "adi",
            "name": "Adi",
            "speakers": 72943,
            "risk": "vulnerable",
            "series_type": "scenario",
            "family_root": "Sino-Tibetan",
            "latitude_map": 28.526319,
            "longitude_map": 93.115814,
            "vitality_group": "watch",
            "vitality_reason": "-1.5%/yr 2044→2045, 72943 speakers → vulnerable",
            "trend_confidence": "high"
        },
        {
            "iso_code": "dth",
            "name": "Adithinngithigh",
            "speakers": null,
            "risk": "unknown",
            "series_type": "scenario",
            "family_root": "Pama-Nyungan",
            "latitude_map": -12.887711,
            "longitude_map": 141.717248,
            "vitality_group": "unknown",
            "vitality_reason": "no speaker data",
            "trend_confidence": "low"
        },
        {
            "iso_code": "adt",
            "name": "Adnyamathanha",
            "speakers": 53,
            "risk": "vulnerable",
            "series_type": "scenario",
            "family_root": "Pama-Nyungan",
            "latitude_map": -30.837141,
            "longitude_map": 139.12154,
            "vitality_group": "watch",
            "vitality_reason": "-1.9%/yr 2044→2045, 53 speakers → vulnerable",
            "trend_confidence": "high"
        },
        {
            "iso_code": "adz",
            "name": "Adzera",
            "speakers": 21041,
            "risk": "vulnerable",
            "series_type": "scenario",
            "family_root": "Austronesian",
            "latitude_map": -6.39,
            "longitude_map": 146.29,
            "vitality_group": "watch",
            "vitality_reason": "-1.5%/yr 2044→2045, 21041 speakers → vulnerable",
            "trend_confidence": "high"
        },
        {
            "iso_code": "aeq",
            "name": "Aer",
            "speakers": 105,
            "risk": "at_risk",
            "series_type": "scenario",
            "family_root": "Indo-European",
            "latitude_map": 25.25,
            "longitude_map": 69.03,
            "vitality_group": "serious",
            "vitality_reason": "-3.7%/yr 2044→2045, 105 speakers → at_risk",
            "trend_confidence": "high"
        },
        {
            "iso_code": "aft",
            "name": "Afitti",
            "speakers": 2110,
            "risk": "vulnerable",
            "series_type": "scenario",
            "family_root": "Nyimang",
            "latitude_map": 12.13869,
            "longitude_map": 30.181732,
            "vitality_group": "watch",
            "vitality_reason": "-3.0%/yr 2044→2045, 2110 speakers → vulnerable",
            "trend_confidence": "high"
        },
        {
            "iso_code": "ulf",
            "name": "Afra",
            "speakers": 61,
            "risk": "at_risk",
            "series_type": "scenario",
            "family_root": "Isolate",
            "latitude_map": -3.5449,
            "longitude_map": 140.7499,
            "vitality_group": "serious",
            "vitality_reason": "-3.2%/yr 2044→2045, 61 speakers → at_risk",
            "trend_confidence": "high"
        },
        {
            "iso_code": "5qc",
            "name": "Aftari",
            "speakers": 364,
            "risk": "vulnerable",
            "series_type": "scenario",
            "family_root": "Indo-European",
            "latitude_map": 35.36,
            "longitude_map": 53.7,
            "vitality_group": "watch",
            "vitality_reason": "-1.6%/yr 2044→2045, 364 speakers → vulnerable",
            "trend_confidence": "high"
        },
        {
            "iso_code": "avo",
            "name": "Agavotaguerra",
            "speakers": null,
            "risk": "unknown",
            "series_type": "scenario",
            "family_root": "Arawakan",
            "latitude_map": -13.3,
            "longitude_map": -53.44,
            "vitality_group": "unknown",
            "vitality_reason": "no speaker data",
            "trend_confidence": "low"
        },
        {
            "iso_code": "gtu",
            "name": "Aghu-Tharnggala",
            "speakers": null,
            "risk": "unknown",
            "series_type": "scenario",
            "family_root": "Pama-Nyungan",
            "latitude_map": -15.117299,
            "longitude_map": 145.810382,
            "vitality_group": "unknown",
            "vitality_reason": "no speaker data",
            "trend_confidence": "low"
        },
        {
            "iso_code": "agx",
            "name": "Aghul",
            "speakers": 4747,
            "risk": "at_risk",
            "series_type": "scenario",
            "family_root": "Northeast Caucasian",
            "latitude_map": 41.7518,
            "longitude_map": 47.6875,
            "vitality_group": "serious",
            "vitality_reason": "-3.0%/yr 2044→2045, 4747 speakers → at_risk",
            "trend_confidence": "high"
        },
        {
            "iso_code": "aif",
            "name": "Agi",
            "speakers": 353,
            "risk": "at_risk",
            "series_type": "scenario",
            "family_root": "Torricelli",
            "latitude_map": -3.49,
            "longitude_map": 142.39,
            "vitality_group": "serious",
            "vitality_reason": "-3.0%/yr 2044→2045, 353 speakers → at_risk",
            "trend_confidence": "high"
        },
        {
            "iso_code": "agr",
            "name": "Aguaruna",
            "speakers": 40043,
            "risk": "vulnerable",
            "series_type": "scenario",
            "family_root": "Chicham family (Jivaroan)",
            "latitude_map": -4.3464,
            "longitude_map": -77.8271,
            "vitality_group": "watch",
            "vitality_reason": "-1.5%/yr 2044→2045, 40043 speakers → vulnerable",
            "trend_confidence": "high"
        },
        {
            "iso_code": "aug",
            "name": "Aguna",
            "speakers": 1830,
            "risk": "at_risk",
            "series_type": "scenario",
            "family_root": "Niger-Congo",
            "latitude_map": 7.348379,
            "longitude_map": 1.933201,
            "vitality_group": "serious",
            "vitality_reason": "-3.0%/yr 2044→2045, 1830 speakers → at_risk",
            "trend_confidence": "high"
        },
        {
            "iso_code": "wmi",
            "name": "Agwamin",
            "speakers": null,
            "risk": "lost",
            "series_type": "scenario",
            "family_root": "Pama-Nyungan",
            "latitude_map": -17.833869,
            "longitude_map": 144.235037,
            "vitality_group": "gone",
            "vitality_reason": "+0.0%/yr 2023→2024, 1 speakers → lost",
            "trend_confidence": "high"
        },
        {
            "iso_code": "ahn",
            "name": "Àhàn",
            "speakers": 158,
            "risk": "at_risk",
            "series_type": "scenario",
            "family_root": "Niger-Congo",
            "latitude_map": 7.762,
            "longitude_map": 5.724,
            "vitality_group": "serious",
            "vitality_reason": "-3.1%/yr 2044→2045, 158 speakers → at_risk",
            "trend_confidence": "high"
        },
        {
            "iso_code": "aht",
            "name": "Ahtna",
            "speakers": null,
            "risk": "lost",
            "series_type": "scenario",
            "family_root": "Athabaskan-Eyak-Tlingit",
            "latitude_map": 62.7547,
            "longitude_map": -144.3164,
            "vitality_group": "gone",
            "vitality_reason": "-9.1%/yr 2040→2041, 10 speakers → lost",
            "trend_confidence": "high"
        },
        {
            "iso_code": "tba",
            "name": "Aikanã",
            "speakers": 137,
            "risk": "vulnerable",
            "series_type": "scenario",
            "family_root": "Isolate",
            "latitude_map": -12.651,
            "longitude_map": -60.3918,
            "vitality_group": "watch",
            "vitality_reason": "-1.4%/yr 2044→2045, 137 speakers → vulnerable",
            "trend_confidence": "high"
        },
        {
            "iso_code": "ymo",
            "name": "Aiku",
            "speakers": 432,
            "risk": "vulnerable",
            "series_type": "scenario",
            "family_root": "Torricelli",
            "latitude_map": -3.51,
            "longitude_map": 142.46,
            "vitality_group": "watch",
            "vitality_reason": "-2.9%/yr 2044→2045, 432 speakers → vulnerable",
            "trend_confidence": "high"
        },
        {
            "iso_code": "ail",
            "name": "Aimele",
            "speakers": 74,
            "risk": "vulnerable",
            "series_type": "scenario",
            "family_root": "Trans-New Guinea",
            "latitude_map": -6.751896,
            "longitude_map": 142.745361,
            "vitality_group": "watch",
            "vitality_reason": "-2.6%/yr 2044→2045, 74 speakers → vulnerable",
            "trend_confidence": "high"
        },
        {
            "iso_code": "aim",
            "name": "Aimol",
            "speakers": 1393,
            "risk": "vulnerable",
            "series_type": "scenario",
            "family_root": "Sino-Tibetan",
            "latitude_map": 24.4971,
            "longitude_map": 93.6145,
            "vitality_group": "watch",
            "vitality_reason": "-3.0%/yr 2044→2045, 1393 speakers → vulnerable",
            "trend_confidence": "high"
        },
        {
            "iso_code": "aic",
            "name": "Ainbai",
            "speakers": 58,
            "risk": "at_risk",
            "series_type": "scenario",
            "family_root": "Border",
            "latitude_map": -3.1,
            "longitude_map": 141.2,
            "vitality_group": "serious",
            "vitality_reason": "-3.3%/yr 2044→2045, 58 speakers → at_risk",
            "trend_confidence": "high"
        },
        {
            "iso_code": "aib",
            "name": "Ainu (China)",
            "speakers": 3165,
            "risk": "at_risk",
            "series_type": "scenario",
            "family_root": "Turkic",
            "latitude_map": 43.843,
            "longitude_map": 87.633,
            "vitality_group": "serious",
            "vitality_reason": "-3.0%/yr 2044→2045, 3165 speakers → at_risk",
            "trend_confidence": "high"
        },
        {
            "iso_code": "ain",
            "name": "Ainu (Japan)",
            "speakers": null,
            "risk": "lost",
            "series_type": "scenario",
            "family_root": "Isolate",
            "latitude_map": 47.3983,
            "longitude_map": 142.2949,
            "vitality_group": "gone",
            "vitality_reason": "+0.0%/yr 2023→2024, 2 speakers → lost",
            "trend_confidence": "high"
        },
        {
            "iso_code": "aki",
            "name": "Aiome",
            "speakers": 327,
            "risk": "vulnerable",
            "series_type": "scenario",
            "family_root": "Lower Sepik-Ramu",
            "latitude_map": -5.13,
            "longitude_map": 144.76,
            "vitality_group": "watch",
            "vitality_reason": "-3.0%/yr 2044→2045, 327 speakers → vulnerable",
            "trend_confidence": "high"
        },
        {
            "iso_code": "mmq",
            "name": "Aisi",
            "speakers": 132,
            "risk": "vulnerable",
            "series_type": "scenario",
            "family_root": "Trans-New Guinea",
            "latitude_map": -5.405093,
            "longitude_map": 145.175755,
            "vitality_group": "watch",
            "vitality_reason": "-2.9%/yr 2044→2045, 132 speakers → vulnerable",
            "trend_confidence": "high"
        },
        {
            "iso_code": "nfl",
            "name": "Äiwoo",
            "speakers": 5771,
            "risk": "vulnerable",
            "series_type": "scenario",
            "family_root": "Austronesian",
            "latitude_map": -10.303377,
            "longitude_map": 166.306967,
            "vitality_group": "watch",
            "vitality_reason": "-1.5%/yr 2044→2045, 5771 speakers → vulnerable",
            "trend_confidence": "high"
        },
        {
            "iso_code": "aja",
            "name": "Aja",
            "speakers": 105,
            "risk": "at_risk",
            "series_type": "scenario",
            "family_root": "Kresh-Aja",
            "latitude_map": 8.6136,
            "longitude_map": 25.2465,
            "vitality_group": "serious",
            "vitality_reason": "-3.7%/yr 2044→2045, 105 speakers → at_risk",
            "trend_confidence": "high"
        },
        {
            "iso_code": "muc",
            "name": "Ajumbu",
            "speakers": 132,
            "risk": "vulnerable",
            "series_type": "scenario",
            "family_root": "Niger-Congo",
            "latitude_map": 6.5391,
            "longitude_map": 10.238567,
            "vitality_group": "watch",
            "vitality_reason": "-2.9%/yr 2044→2045, 132 speakers → vulnerable",
            "trend_confidence": "high"
        },
        {
            "iso_code": "akq",
            "name": "Ak",
            "speakers": 11,
            "risk": "critical",
            "series_type": "scenario",
            "family_root": "Sepik",
            "latitude_map": -3.6093,
            "longitude_map": 141.6604,
            "vitality_group": "serious",
            "vitality_reason": "-8.3%/yr 2044→2045, 11 speakers → critical",
            "trend_confidence": "high"
        },
        {
            "iso_code": "soh",
            "name": "Aka",
            "speakers": 290,
            "risk": "at_risk",
            "series_type": "scenario",
            "family_root": "Eastern Jebel",
            "latitude_map": 11.0112,
            "longitude_map": 34.2333,
            "vitality_group": "serious",
            "vitality_reason": "-3.0%/yr 2044→2045, 290 speakers → at_risk",
            "trend_confidence": "high"
        },
        {
            "iso_code": "akm",
            "name": "Aka-Bo",
            "speakers": null,
            "risk": "unknown",
            "series_type": "scenario",
            "family_root": "Great Andamanese",
            "latitude_map": 13.270513,
            "longitude_map": 92.837538,
            "vitality_group": "unknown",
            "vitality_reason": "no speaker data",
            "trend_confidence": "low"
        },
        {
            "iso_code": "ack",
            "name": "Aka-Kora",
            "speakers": null,
            "risk": "unknown",
            "series_type": "scenario",
            "family_root": "Great Andamanese",
            "latitude_map": 13.390518,
            "longitude_map": 93.040969,
            "vitality_group": "unknown",
            "vitality_reason": "no speaker data",
            "trend_confidence": "low"
        },
        {
            "iso_code": "knj",
            "name": "Akateko",
            "speakers": 2939,
            "risk": "at_risk",
            "series_type": "scenario",
            "family_root": "Mayan",
            "latitude_map": 15.833333,
            "longitude_map": -91.833333,
            "vitality_group": "serious",
            "vitality_reason": "-3.0%/yr 2044→2045, 2939 speakers → at_risk",
            "trend_confidence": "high"
        },
        {
            "iso_code": "aik",
            "name": "Ake",
            "speakers": 728,
            "risk": "vulnerable",
            "series_type": "scenario",
            "family_root": "Niger-Congo",
            "latitude_map": 8.94748,
            "longitude_map": 8.835342,
            "vitality_group": "watch",
            "vitality_reason": "-1.5%/yr 2044→2045, 728 speakers → vulnerable",
            "trend_confidence": "high"
        },
        {
            "iso_code": "aeu",
            "name": "Akeu",
            "speakers": 2637,
            "risk": "at_risk",
            "series_type": "scenario",
            "family_root": "Sino-Tibetan",
            "latitude_map": 21.5833,
            "longitude_map": 101.0166,
            "vitality_group": "serious",
            "vitality_reason": "-3.0%/yr 2044→2045, 2637 speakers → at_risk",
            "trend_confidence": "high"
        },
        {
            "iso_code": "akv",
            "name": "Akhvakh",
            "speakers": 2637,
            "risk": "at_risk",
            "series_type": "scenario",
            "family_root": "Northeast Caucasian",
            "latitude_map": 42.472,
            "longitude_map": 46.3238,
            "vitality_group": "serious",
            "vitality_reason": "-3.0%/yr 2044→2045, 2637 speakers → at_risk",
            "trend_confidence": "high"
        },
        {
            "iso_code": "sia",
            "name": "Akkala Saami",
            "speakers": null,
            "risk": "lost",
            "series_type": "scenario",
            "family_root": "Uralic",
            "latitude_map": 67.5809,
            "longitude_map": 31.668,
            "vitality_group": "gone",
            "vitality_reason": "+0.0%/yr 2023→2024, 1 speakers → lost",
            "trend_confidence": "high"
        },
        {
            "iso_code": "miw",
            "name": "Akoye",
            "speakers": 422,
            "risk": "vulnerable",
            "series_type": "scenario",
            "family_root": "Trans-New Guinea",
            "latitude_map": -7.814405,
            "longitude_map": 145.675964,
            "vitality_group": "watch",
            "vitality_reason": "-3.0%/yr 2044→2045, 422 speakers → vulnerable",
            "trend_confidence": "high"
        },
        {
            "iso_code": "aku",
            "name": "Akum",
            "speakers": 316,
            "risk": "at_risk",
            "series_type": "scenario",
            "family_root": "Niger-Congo",
            "latitude_map": 6.73,
            "longitude_map": 9.9316,
            "vitality_group": "serious",
            "vitality_reason": "-3.1%/yr 2044→2045, 316 speakers → at_risk",
            "trend_confidence": "high"
        },
        {
            "iso_code": "aqz",
            "name": "Akuntsú",
            "speakers": null,
            "risk": "lost",
            "series_type": "scenario",
            "family_root": "Tupian",
            "latitude_map": -10.9,
            "longitude_map": -63.6,
            "vitality_group": "gone",
            "vitality_reason": "+0.0%/yr 2023→2024, 3 speakers → lost",
            "trend_confidence": "high"
        },
        {
            "iso_code": "ako",
            "name": "Akuriyo",
            "speakers": null,
            "risk": "lost",
            "series_type": "scenario",
            "family_root": "Cariban",
            "latitude_map": 2.8442,
            "longitude_map": -55.7556,
            "vitality_group": "gone",
            "vitality_reason": "+0.0%/yr 2023→2024, 10 speakers → lost",
            "trend_confidence": "high"
        },
        {
            "iso_code": "syy",
            "name": "Al-Sayyid Bedouin Sign Language",
            "speakers": 79,
            "risk": "at_risk",
            "series_type": "scenario",
            "family_root": "Sign Language",
            "latitude_map": 30.377614,
            "longitude_map": 34.886169,
            "vitality_group": "serious",
            "vitality_reason": "-3.7%/yr 2044→2045, 79 speakers → at_risk",
            "trend_confidence": "high"
        },
        {
            "iso_code": "akz",
            "name": "Alabama",
            "speakers": 145,
            "risk": "at_risk",
            "series_type": "scenario",
            "family_root": "Muskogean",
            "latitude_map": 30.7158,
            "longitude_map": -94.7028,
            "vitality_group": "serious",
            "vitality_reason": "-3.3%/yr 2044→2045, 145 speakers → at_risk",
            "trend_confidence": "high"
        },
        {
            "iso_code": "nog-tat",
            "name": "Alabugat Tatar",
            "speakers": 291,
            "risk": "vulnerable",
            "series_type": "scenario",
            "family_root": "Turkic",
            "latitude_map": 43.59,
            "longitude_map": 46.66,
            "vitality_group": "watch",
            "vitality_reason": "-1.7%/yr 2044→2045, 291 speakers → vulnerable",
            "trend_confidence": "high"
        },
        {
            "iso_code": "ala",
            "name": "Alago",
            "speakers": 10921,
            "risk": "vulnerable",
            "series_type": "scenario",
            "family_root": "Niger-Congo",
            "latitude_map": 8.110174,
            "longitude_map": 9.14293,
            "vitality_group": "watch",
            "vitality_reason": "-1.5%/yr 2044→2045, 10921 speakers → vulnerable",
            "trend_confidence": "high"
        },
        {
            "iso_code": "wbj",
            "name": "Alagwa",
            "speakers": 2637,
            "risk": "at_risk",
            "series_type": "scenario",
            "family_root": "Afro-Asiatic",
            "latitude_map": -5.5,
            "longitude_map": 35.75,
            "vitality_group": "serious",
            "vitality_reason": "-3.0%/yr 2044→2045, 2637 speakers → at_risk",
            "trend_confidence": "high"
        },
        {
            "iso_code": "amp",
            "name": "Alamblak",
            "speakers": 633,
            "risk": "at_risk",
            "series_type": "scenario",
            "family_root": "Sepik",
            "latitude_map": -4.66,
            "longitude_map": 143.32,
            "vitality_group": "serious",
            "vitality_reason": "-3.1%/yr 2044→2045, 633 speakers → at_risk",
            "trend_confidence": "high"
        },
        {
            "iso_code": "alh",
            "name": "Alawa",
            "speakers": null,
            "risk": "lost",
            "series_type": "scenario",
            "family_root": "Gunwinyguan",
            "latitude_map": -15.533919,
            "longitude_map": 134.202823,
            "vitality_group": "gone",
            "vitality_reason": "-9.1%/yr 2031→2032, 10 speakers → lost",
            "trend_confidence": "high"
        },
        {
            "iso_code": "zas",
            "name": "Albarradas Zapotec",
            "speakers": 4004,
            "risk": "vulnerable",
            "series_type": "scenario",
            "family_root": "Otomanguean",
            "latitude_map": 17.066921,
            "longitude_map": -96.20071,
            "vitality_group": "watch",
            "vitality_reason": "-1.5%/yr 2044→2045, 4004 speakers → vulnerable",
            "trend_confidence": "high"
        },
        {
            "iso_code": "gah",
            "name": "Alekano",
            "speakers": 18201,
            "risk": "vulnerable",
            "series_type": "scenario",
            "family_root": "Trans-New Guinea",
            "latitude_map": -6.086192,
            "longitude_map": 145.386028,
            "vitality_group": "watch",
            "vitality_reason": "-1.5%/yr 2044→2045, 18201 speakers → vulnerable",
            "trend_confidence": "high"
        },
        {
            "iso_code": "ale",
            "name": "Aleut",
            "speakers": null,
            "risk": "lost",
            "series_type": "scenario",
            "family_root": "Eskimo-Aleut",
            "latitude_map": 54.7212,
            "longitude_map": -164.4433,
            "vitality_group": "gone",
            "vitality_reason": "-97.4%/yr 2023→2024, 4 speakers → lost",
            "trend_confidence": "high"
        },
        {
            "iso_code": "afk, afp",
            "name": "Alfendio",
            "speakers": 461,
            "risk": "vulnerable",
            "series_type": "scenario",
            "family_root": "Arafundi",
            "latitude_map": -4.75,
            "longitude_map": 143.64,
            "vitality_group": "watch",
            "vitality_reason": "-1.5%/yr 2044→2045, 461 speakers → vulnerable",
            "trend_confidence": "high"
        },
        {
            "iso_code": "cat-alg",
            "name": "Algherese Catalan",
            "speakers": 18201,
            "risk": "vulnerable",
            "series_type": "scenario",
            "family_root": "Indo-European",
            "latitude_map": 40.564318,
            "longitude_map": 8.328667,
            "vitality_group": "watch",
            "vitality_reason": "-1.5%/yr 2044→2045, 18201 speakers → vulnerable",
            "trend_confidence": "high"
        },
        {
            "iso_code": "1kt",
            "name": "Alipur Sign Language",
            "speakers": 4004,
            "risk": "vulnerable",
            "series_type": "scenario",
            "family_root": "Sign Language",
            "latitude_map": 13.486,
            "longitude_map": 77.452,
            "vitality_group": "watch",
            "vitality_reason": "-1.5%/yr 2044→2045, 4004 speakers → vulnerable",
            "trend_confidence": "high"
        },
        {
            "iso_code": "all",
            "name": "Allar",
            "speakers": 185,
            "risk": "vulnerable",
            "series_type": "scenario",
            "family_root": "Dravidian",
            "latitude_map": 11.108169,
            "longitude_map": 76.166224,
            "vitality_group": "watch",
            "vitality_reason": "-2.6%/yr 2044→2045, 185 speakers → vulnerable",
            "trend_confidence": "high"
        },
        {
            "iso_code": "aid",
            "name": "Alngith",
            "speakers": null,
            "risk": "lost",
            "series_type": "scenario",
            "family_root": "Pama-Nyungan",
            "latitude_map": -12.573105,
            "longitude_map": 141.869154,
            "vitality_group": "gone",
            "vitality_reason": "+0.0%/yr 2023→2024, 3 speakers → lost",
            "trend_confidence": "high"
        },
        {
            "iso_code": "qvm",
            "name": "Alto Marañón Quechua",
            "speakers": 60719,
            "risk": "vulnerable",
            "series_type": "scenario",
            "family_root": "Quechuan",
            "latitude_map": -9.932,
            "longitude_map": -76.242,
            "vitality_group": "watch",
            "vitality_reason": "-1.5%/yr 2044→2045, 60719 speakers → vulnerable",
            "trend_confidence": "high"
        },
        {
            "iso_code": "dia",
            "name": "Alu",
            "speakers": 992,
            "risk": "vulnerable",
            "series_type": "scenario",
            "family_root": "Torricelli",
            "latitude_map": -3.39,
            "longitude_map": 142.25,
            "vitality_group": "watch",
            "vitality_reason": "-2.9%/yr 2044→2045, 992 speakers → vulnerable",
            "trend_confidence": "high"
        },
        {
            "iso_code": "xua",
            "name": "Alu Kurumba",
            "speakers": 527,
            "risk": "at_risk",
            "series_type": "scenario",
            "family_root": "Dravidian",
            "latitude_map": 11.35,
            "longitude_map": 76.8,
            "vitality_group": "serious",
            "vitality_reason": "-3.1%/yr 2044→2045, 527 speakers → at_risk",
            "trend_confidence": "high"
        },
        {
            "iso_code": "alp",
            "name": "Alune",
            "speakers": 8737,
            "risk": "vulnerable",
            "series_type": "scenario",
            "family_root": "Austronesian",
            "latitude_map": -3.0637,
            "longitude_map": 128.3752,
            "vitality_group": "watch",
            "vitality_reason": "-1.5%/yr 2044→2045, 8737 speakers → vulnerable",
            "trend_confidence": "high"
        },
        {
            "iso_code": "yna",
            "name": "Aluo",
            "speakers": 10550,
            "risk": "vulnerable",
            "series_type": "scenario",
            "family_root": "Sino-Tibetan",
            "latitude_map": 25.9368,
            "longitude_map": 102.1839,
            "vitality_group": "watch",
            "vitality_reason": "-3.0%/yr 2044→2045, 10550 speakers → vulnerable",
            "trend_confidence": "high"
        },
        {
            "iso_code": "ems",
            "name": "Alutiiq",
            "speakers": 55,
            "risk": "at_risk",
            "series_type": "scenario",
            "family_root": "Eskimo-Aleut",
            "latitude_map": 57.793056,
            "longitude_map": -152.394167,
            "vitality_group": "serious",
            "vitality_reason": "-5.2%/yr 2044→2045, 55 speakers → at_risk",
            "trend_confidence": "high"
        },
        {
            "iso_code": "alr",
            "name": "Alutor",
            "speakers": 273,
            "risk": "at_risk",
            "series_type": "scenario",
            "family_root": "Chukotko-Kamchatkan",
            "latitude_map": 60.2016,
            "longitude_map": 165.4238,
            "vitality_group": "serious",
            "vitality_reason": "-5.9%/yr 2044→2045, 273 speakers → at_risk",
            "trend_confidence": "high"
        },
        {
            "iso_code": "avd",
            "name": "Alviri-Vidari",
            "speakers": null,
            "risk": "unknown",
            "series_type": "scenario",
            "family_root": "Indo-European",
            "latitude_map": 35.01,
            "longitude_map": 50.38,
            "vitality_group": "unknown",
            "vitality_reason": "no speaker data",
            "trend_confidence": "low"
        },
        {
            "iso_code": "aly",
            "name": "Alyawarr",
            "speakers": 1211,
            "risk": "vulnerable",
            "series_type": "scenario",
            "family_root": "Pama-Nyungan",
            "latitude_map": -22.291522,
            "longitude_map": 135.963709,
            "vitality_group": "watch",
            "vitality_reason": "-1.5%/yr 2044→2045, 1211 speakers → vulnerable",
            "trend_confidence": "high"
        },
        {
            "iso_code": "amm",
            "name": "Ama",
            "speakers": 328,
            "risk": "vulnerable",
            "series_type": "scenario",
            "family_root": "Left May",
            "latitude_map": -4.2,
            "longitude_map": 141.66,
            "vitality_group": "watch",
            "vitality_reason": "-1.5%/yr 2044→2045, 328 speakers → vulnerable",
            "trend_confidence": "high"
        },
        {
            "iso_code": "amq",
            "name": "Amahai",
            "speakers": 14,
            "risk": "critical",
            "series_type": "scenario",
            "family_root": "Austronesian",
            "latitude_map": -3.3352,
            "longitude_map": 128.9314,
            "vitality_group": "serious",
            "vitality_reason": "-6.7%/yr 2044→2045, 14 speakers → critical",
            "trend_confidence": "high"
        },
        {
            "iso_code": "amc",
            "name": "Amahuaca",
            "speakers": 100,
            "risk": "vulnerable",
            "series_type": "scenario",
            "family_root": "Pano-Tacanan",
            "latitude_map": -10.8764,
            "longitude_map": -72.29,
            "vitality_group": "watch",
            "vitality_reason": "-2.9%/yr 2044→2045, 100 speakers → vulnerable",
            "trend_confidence": "high"
        },
        {
            "iso_code": "aad",
            "name": "Amal",
            "speakers": 205,
            "risk": "vulnerable",
            "series_type": "scenario",
            "family_root": "Sepik",
            "latitude_map": -4.05,
            "longitude_map": 142.0,
            "vitality_group": "watch",
            "vitality_reason": "-2.8%/yr 2044→2045, 205 speakers → vulnerable",
            "trend_confidence": "high"
        },
        {
            "iso_code": "kzg, xug, ryn, okn, ams, tkn, yox",
            "name": "Amami-North Okinawan",
            "speakers": 72805,
            "risk": "vulnerable",
            "series_type": "scenario",
            "family_root": "Japonic",
            "latitude_map": 28.3672,
            "longitude_map": 129.4958,
            "vitality_group": "watch",
            "vitality_reason": "-1.5%/yr 2044→2045, 72805 speakers → vulnerable",
            "trend_confidence": "high"
        },
        {
            "iso_code": "amn",
            "name": "Amanab",
            "speakers": 1846,
            "risk": "vulnerable",
            "series_type": "scenario",
            "family_root": "Border",
            "latitude_map": -3.55,
            "longitude_map": 141.18,
            "vitality_group": "watch",
            "vitality_reason": "-3.0%/yr 2044→2045, 1846 speakers → vulnerable",
            "trend_confidence": "high"
        },
        {
            "iso_code": "ama",
            "name": "Amanayé",
            "speakers": null,
            "risk": "unknown",
            "series_type": "scenario",
            "family_root": "Tupian",
            "latitude_map": -3.7327,
            "longitude_map": -49.1088,
            "vitality_group": "unknown",
            "vitality_reason": "no speaker data",
            "trend_confidence": "low"
        },
        {
            "iso_code": "aie",
            "name": "Amara",
            "speakers": 61,
            "risk": "at_risk",
            "series_type": "scenario",
            "family_root": "Austronesian",
            "latitude_map": -5.51655,
            "longitude_map": 148.765182,
            "vitality_group": "serious",
            "vitality_reason": "-3.2%/yr 2044→2045, 61 speakers → at_risk",
            "trend_confidence": "high"
        },
        {
            "iso_code": "aaz",
            "name": "Amarasi",
            "speakers": 50963,
            "risk": "vulnerable",
            "series_type": "scenario",
            "family_root": "Austronesian",
            "latitude_map": -10.08,
            "longitude_map": 124.33,
            "vitality_group": "watch",
            "vitality_reason": "-1.5%/yr 2044→2045, 50963 speakers → vulnerable",
            "trend_confidence": "high"
        },
        {
            "iso_code": "aew",
            "name": "Ambakich",
            "speakers": 406,
            "risk": "at_risk",
            "series_type": "scenario",
            "family_root": "Lower Sepik-Ramu",
            "latitude_map": -4.2,
            "longitude_map": 144.25,
            "vitality_group": "serious",
            "vitality_reason": "-3.1%/yr 2044→2045, 406 speakers → at_risk",
            "trend_confidence": "high"
        },
        {
            "iso_code": "ael",
            "name": "Ambele",
            "speakers": 2621,
            "risk": "vulnerable",
            "series_type": "scenario",
            "family_root": "Niger-Congo",
            "latitude_map": 5.868,
            "longitude_map": 9.765,
            "vitality_group": "watch",
            "vitality_reason": "-1.5%/yr 2044→2045, 2621 speakers → vulnerable",
            "trend_confidence": "high"
        },
        {
            "iso_code": "abt, wos",
            "name": "Ambulas",
            "speakers": 24026,
            "risk": "vulnerable",
            "series_type": "scenario",
            "family_root": "Sepik",
            "latitude_map": -3.78,
            "longitude_map": 143.06,
            "vitality_group": "watch",
            "vitality_reason": "-1.5%/yr 2044→2045, 24026 speakers → vulnerable",
            "trend_confidence": "high"
        },
        {
            "iso_code": "amj",
            "name": "Amdang",
            "speakers": 2637,
            "risk": "at_risk",
            "series_type": "scenario",
            "family_root": "Furan",
            "latitude_map": 14.62478,
            "longitude_map": 20.944645,
            "vitality_group": "serious",
            "vitality_reason": "-3.0%/yr 2044→2045, 2637 speakers → at_risk",
            "trend_confidence": "high"
        },
        {
            "iso_code": "aqd",
            "name": "Ampari",
            "speakers": 2743,
            "risk": "at_risk",
            "series_type": "scenario",
            "family_root": "Niger-Congo",
            "latitude_map": 14.257728,
            "longitude_map": -3.90712,
            "vitality_group": "serious",
            "vitality_reason": "-3.0%/yr 2044→2045, 2743 speakers → at_risk",
            "trend_confidence": "high"
        },
        {
            "iso_code": "law-amp",
            "name": "Ampibabo",
            "speakers": 4368,
            "risk": "vulnerable",
            "series_type": "scenario",
            "family_root": "Austronesian",
            "latitude_map": -0.5,
            "longitude_map": 120.0,
            "vitality_group": "watch",
            "vitality_reason": "-1.5%/yr 2044→2045, 4368 speakers → vulnerable",
            "trend_confidence": "high"
        },
        {
            "iso_code": "amt",
            "name": "Amto",
            "speakers": 121,
            "risk": "at_risk",
            "series_type": "scenario",
            "family_root": "Amto-Musan",
            "latitude_map": -4.052936,
            "longitude_map": 141.328445,
            "vitality_group": "serious",
            "vitality_reason": "-3.2%/yr 2044→2045, 121 speakers → at_risk",
            "trend_confidence": "high"
        },
        {
            "iso_code": "ame",
            "name": "Amuesha",
            "speakers": 4220,
            "risk": "vulnerable",
            "series_type": "scenario",
            "family_root": "Arawakan",
            "latitude_map": -10.3743,
            "longitude_map": -75.2343,
            "vitality_group": "watch",
            "vitality_reason": "-3.0%/yr 2044→2045, 4220 speakers → vulnerable",
            "trend_confidence": "high"
        },
        {
            "iso_code": "1ot",
            "name": "Amur Nivkh",
            "speakers": 364,
            "risk": "vulnerable",
            "series_type": "scenario",
            "family_root": "Nivkh",
            "latitude_map": 53.2684,
            "longitude_map": 140.4107,
            "vitality_group": "watch",
            "vitality_reason": "-1.6%/yr 2044→2045, 364 speakers → vulnerable",
            "trend_confidence": "high"
        },
        {
            "iso_code": "amg",
            "name": "Amurdak",
            "speakers": null,
            "risk": "lost",
            "series_type": "scenario",
            "family_root": "Iwaidjan",
            "latitude_map": -11.149603,
            "longitude_map": 132.576973,
            "vitality_group": "gone",
            "vitality_reason": "+0.0%/yr 2023→2024, 4 speakers → lost",
            "trend_confidence": "high"
        },
        {
            "iso_code": "anw",
            "name": "Anaang",
            "speakers": 533689,
            "risk": "vulnerable",
            "series_type": "scenario",
            "family_root": "Niger-Congo",
            "latitude_map": 5.182927,
            "longitude_map": 7.715479,
            "vitality_group": "watch",
            "vitality_reason": "-1.5%/yr 2044→2045, 533689 speakers → vulnerable",
            "trend_confidence": "high"
        },
        {
            "iso_code": "akg",
            "name": "Anakalangu",
            "speakers": 18201,
            "risk": "vulnerable",
            "series_type": "scenario",
            "family_root": "Austronesian",
            "latitude_map": -9.576376,
            "longitude_map": 119.586182,
            "vitality_group": "watch",
            "vitality_reason": "-1.5%/yr 2044→2045, 18201 speakers → vulnerable",
            "trend_confidence": "high"
        },
        {
            "iso_code": "anm",
            "name": "Anal",
            "speakers": 29011,
            "risk": "at_risk",
            "series_type": "scenario",
            "family_root": "Sino-Tibetan",
            "latitude_map": 24.1517,
            "longitude_map": 93.9385,
            "vitality_group": "serious",
            "vitality_reason": "-3.0%/yr 2044→2045, 29011 speakers → at_risk",
            "trend_confidence": "high"
        },
        {
            "iso_code": "pda",
            "name": "Anam",
            "speakers": 564,
            "risk": "at_risk",
            "series_type": "scenario",
            "family_root": "Trans-New Guinea",
            "latitude_map": -4.811839,
            "longitude_map": 145.008545,
            "vitality_group": "serious",
            "vitality_reason": "-3.1%/yr 2044→2045, 564 speakers → at_risk",
            "trend_confidence": "high"
        },
        {
            "iso_code": "aan",
            "name": "Anambé of Cairarí",
            "speakers": null,
            "risk": "unknown",
            "series_type": "scenario",
            "family_root": "Tupian",
            "latitude_map": -2.592,
            "longitude_map": -49.483,
            "vitality_group": "unknown",
            "vitality_reason": "no speaker data",
            "trend_confidence": "low"
        },
        {
            "iso_code": "ajn",
            "name": "Andajin",
            "speakers": null,
            "risk": "lost",
            "series_type": "scenario",
            "family_root": "Worrorran",
            "latitude_map": -17.376608,
            "longitude_map": 126.259285,
            "vitality_group": "gone",
            "vitality_reason": "2 speakers → effectively lost",
            "trend_confidence": "low"
        },
        {
            "iso_code": "aod",
            "name": "Andarum",
            "speakers": 438,
            "risk": "vulnerable",
            "series_type": "scenario",
            "family_root": "Lower Sepik-Ramu",
            "latitude_map": -4.49,
            "longitude_map": 144.77,
            "vitality_group": "watch",
            "vitality_reason": "-2.9%/yr 2044→2045, 438 speakers → vulnerable",
            "trend_confidence": "high"
        },
        {
            "iso_code": "mrp",
            "name": "Ande",
            "speakers": 264,
            "risk": "vulnerable",
            "series_type": "scenario",
            "family_root": "Austronesian",
            "latitude_map": -15.470705,
            "longitude_map": 166.936238,
            "vitality_group": "watch",
            "vitality_reason": "-2.9%/yr 2044→2045, 264 speakers → vulnerable",
            "trend_confidence": "high"
        },
        {
            "iso_code": "ani",
            "name": "Andi",
            "speakers": 10921,
            "risk": "vulnerable",
            "series_type": "scenario",
            "family_root": "Northeast Caucasian",
            "latitude_map": 42.7308,
            "longitude_map": 46.2963,
            "vitality_group": "watch",
            "vitality_reason": "-1.5%/yr 2044→2045, 10921 speakers → vulnerable",
            "trend_confidence": "high"
        },
        {
            "iso_code": "bzb",
            "name": "Andio",
            "speakers": 897,
            "risk": "vulnerable",
            "series_type": "scenario",
            "family_root": "Austronesian",
            "latitude_map": -0.8514,
            "longitude_map": 123.1457,
            "vitality_group": "watch",
            "vitality_reason": "-2.9%/yr 2044→2045, 897 speakers → vulnerable",
            "trend_confidence": "high"
        },
        {
            "iso_code": "anb",
            "name": "Andoa",
            "speakers": null,
            "risk": "unknown",
            "series_type": "scenario",
            "family_root": "Zaparoan",
            "latitude_map": -2.6796,
            "longitude_map": -76.2011,
            "vitality_group": "unknown",
            "vitality_reason": "no speaker data",
            "trend_confidence": "low"
        },
        {
            "iso_code": "ano",
            "name": "Andoque",
            "speakers": null,
            "risk": "lost",
            "series_type": "scenario",
            "family_root": "Isolate",
            "latitude_map": -0.769,
            "longitude_map": -72.2351,
            "vitality_group": "gone",
            "vitality_reason": "+0.0%/yr 2023→2024, 3 speakers → lost",
            "trend_confidence": "high"
        },
        {
            "iso_code": "anz",
            "name": "Anem",
            "speakers": 445,
            "risk": "vulnerable",
            "series_type": "scenario",
            "family_root": "Isolate",
            "latitude_map": -5.54836,
            "longitude_map": 148.993,
            "vitality_group": "watch",
            "vitality_reason": "-2.8%/yr 2044→2045, 445 speakers → vulnerable",
            "trend_confidence": "high"
        },
        {
            "iso_code": "myo",
            "name": "Anfillo",
            "speakers": 264,
            "risk": "vulnerable",
            "series_type": "scenario",
            "family_root": "Afro-Asiatic",
            "latitude_map": 8.5049,
            "longitude_map": 34.7415,
            "vitality_group": "watch",
            "vitality_reason": "-2.9%/yr 2044→2045, 264 speakers → vulnerable",
            "trend_confidence": "high"
        },
        {
            "iso_code": "aqt",
            "name": "Angaité",
            "speakers": 213,
            "risk": "at_risk",
            "series_type": "scenario",
            "family_root": "Enlhet-Enenlhet (Mascoyan)",
            "latitude_map": -21.937968,
            "longitude_map": -59.958687,
            "vitality_group": "serious",
            "vitality_reason": "-5.8%/yr 2044→2045, 213 speakers → at_risk",
            "trend_confidence": "high"
        },
        {
            "iso_code": "agg",
            "name": "Angor",
            "speakers": 659,
            "risk": "at_risk",
            "series_type": "scenario",
            "family_root": "Senagi",
            "latitude_map": -3.72,
            "longitude_map": 141.2,
            "vitality_group": "serious",
            "vitality_reason": "-3.1%/yr 2044→2045, 659 speakers → at_risk",
            "trend_confidence": "high"
        },
        {
            "iso_code": "aog",
            "name": "Angoram",
            "speakers": 4743,
            "risk": "vulnerable",
            "series_type": "scenario",
            "family_root": "Lower Sepik-Ramu",
            "latitude_map": -4.08,
            "longitude_map": 144.03,
            "vitality_group": "watch",
            "vitality_reason": "-1.5%/yr 2044→2045, 4743 speakers → vulnerable",
            "trend_confidence": "high"
        },
        {
            "iso_code": "blo",
            "name": "Anii",
            "speakers": 9101,
            "risk": "vulnerable",
            "series_type": "scenario",
            "family_root": "Niger-Congo",
            "latitude_map": 9.032,
            "longitude_map": 1.657,
            "vitality_group": "watch",
            "vitality_reason": "-1.5%/yr 2044→2045, 9101 speakers → vulnerable",
            "trend_confidence": "high"
        },
        {
            "iso_code": "anf",
            "name": "Animere",
            "speakers": null,
            "risk": "lost",
            "series_type": "scenario",
            "family_root": "Niger-Congo",
            "latitude_map": 7.6129,
            "longitude_map": 0.4064,
            "vitality_group": "gone",
            "vitality_reason": "-9.1%/yr 2040→2041, 10 speakers → lost",
            "trend_confidence": "high"
        },
        {
            "iso_code": "aoi",
            "name": "Anindilyakwa",
            "speakers": 791,
            "risk": "at_risk",
            "series_type": "scenario",
            "family_root": "Gunwinyguan",
            "latitude_map": -13.939399,
            "longitude_map": 136.592789,
            "vitality_group": "serious",
            "vitality_reason": "-3.1%/yr 2044→2045, 791 speakers → at_risk",
            "trend_confidence": "high"
        },
        {
            "iso_code": "amx",
            "name": "Anmatyerre",
            "speakers": 396,
            "risk": "vulnerable",
            "series_type": "scenario",
            "family_root": "Pama-Nyungan",
            "latitude_map": -21.982775,
            "longitude_map": 133.429034,
            "vitality_group": "watch",
            "vitality_reason": "-2.9%/yr 2044→2045, 396 speakers → vulnerable",
            "trend_confidence": "high"
        },
        {
            "iso_code": "nun",
            "name": "Anong",
            "speakers": 1102,
            "risk": "at_risk",
            "series_type": "scenario",
            "family_root": "Sino-Tibetan",
            "latitude_map": 27.1,
            "longitude_map": 98.7,
            "vitality_group": "serious",
            "vitality_reason": "-6.0%/yr 2044→2045, 1102 speakers → at_risk",
            "trend_confidence": "high"
        },
        {
            "iso_code": "anj",
            "name": "Anor",
            "speakers": 237,
            "risk": "at_risk",
            "series_type": "scenario",
            "family_root": "Lower Sepik-Ramu",
            "latitude_map": -4.98,
            "longitude_map": 144.8,
            "vitality_group": "serious",
            "vitality_reason": "-3.3%/yr 2044→2045, 237 speakers → at_risk",
            "trend_confidence": "high"
        },
        {
            "iso_code": "ant",
            "name": "Antakirinya",
            "speakers": 14,
            "risk": "critical",
            "series_type": "scenario",
            "family_root": "Pama-Nyungan",
            "latitude_map": -27.052452,
            "longitude_map": 134.400751,
            "vitality_group": "serious",
            "vitality_reason": "-6.7%/yr 2044→2045, 14 speakers → critical",
            "trend_confidence": "high"
        },
        {
            "iso_code": "adg",
            "name": "Antekerrepenh",
            "speakers": null,
            "risk": "lost",
            "series_type": "scenario",
            "family_root": "Pama-Nyungan",
            "latitude_map": -23.231896,
            "longitude_map": 139.971559,
            "vitality_group": "gone",
            "vitality_reason": "-6.4%/yr 2006→2018, 5 speakers → lost",
            "trend_confidence": "high"
        },
        {
            "iso_code": "aui",
            "name": "Anuki",
            "speakers": 303,
            "risk": "vulnerable",
            "series_type": "scenario",
            "family_root": "Austronesian",
            "latitude_map": -9.6522,
            "longitude_map": 149.7656,
            "vitality_group": "watch",
            "vitality_reason": "-2.9%/yr 2044→2045, 303 speakers → vulnerable",
            "trend_confidence": "high"
        },
        {
            "iso_code": "auq",
            "name": "Anus",
            "speakers": 169,
            "risk": "vulnerable",
            "series_type": "scenario",
            "family_root": "Austronesian",
            "latitude_map": -2.1268,
            "longitude_map": 139.5126,
            "vitality_group": "watch",
            "vitality_reason": "-2.9%/yr 2044→2045, 169 speakers → vulnerable",
            "trend_confidence": "high"
        },
        {
            "iso_code": "aud",
            "name": "Anuta",
            "speakers": 179,
            "risk": "at_risk",
            "series_type": "scenario",
            "family_root": "Austronesian",
            "latitude_map": -11.611,
            "longitude_map": 169.85,
            "vitality_group": "serious",
            "vitality_reason": "-3.2%/yr 2044→2045, 179 speakers → at_risk",
            "trend_confidence": "high"
        },
        {
            "iso_code": "aor",
            "name": "Aore",
            "speakers": null,
            "risk": "unknown",
            "series_type": "scenario",
            "family_root": "Austronesian",
            "latitude_map": -15.58797,
            "longitude_map": 167.211754,
            "vitality_group": "unknown",
            "vitality_reason": "no speaker data",
            "trend_confidence": "low"
        },
        {
            "iso_code": "kbx",
            "name": "Ap Ma",
            "speakers": 3429,
            "risk": "vulnerable",
            "series_type": "scenario",
            "family_root": "Isolate",
            "latitude_map": -4.35,
            "longitude_map": 144.09,
            "vitality_group": "watch",
            "vitality_reason": "-3.0%/yr 2044→2045, 3429 speakers → vulnerable",
            "trend_confidence": "high"
        },
        {
            "iso_code": "apy",
            "name": "Apalaí",
            "speakers": 167,
            "risk": "vulnerable",
            "series_type": "scenario",
            "family_root": "Cariban",
            "latitude_map": 1.2084,
            "longitude_map": -55.1074,
            "vitality_group": "watch",
            "vitality_reason": "-2.9%/yr 2044→2045, 167 speakers → vulnerable",
            "trend_confidence": "high"
        },
        {
            "iso_code": "apt",
            "name": "Apatani",
            "speakers": 10193,
            "risk": "vulnerable",
            "series_type": "scenario",
            "family_root": "Sino-Tibetan",
            "latitude_map": 27.5228,
            "longitude_map": 93.8177,
            "vitality_group": "watch",
            "vitality_reason": "-1.5%/yr 2044→2045, 10193 speakers → vulnerable",
            "trend_confidence": "high"
        },
        {
            "iso_code": "api",
            "name": "Apiaká",
            "speakers": null,
            "risk": "unknown",
            "series_type": "scenario",
            "family_root": "Tupian",
            "latitude_map": -11.1519,
            "longitude_map": -57.3113,
            "vitality_group": "unknown",
            "vitality_reason": "no speaker data",
            "trend_confidence": "low"
        },
        {
            "iso_code": "apn",
            "name": "Apinayé",
            "speakers": null,
            "risk": "lost",
            "series_type": "scenario",
            "family_root": "Jean",
            "latitude_map": -5.5,
            "longitude_map": -48.0,
            "vitality_group": "gone",
            "vitality_reason": "+0.0%/yr 2023→2024, 2 speakers → lost",
            "trend_confidence": "high"
        },
        {
            "iso_code": "apu",
            "name": "Apuriná",
            "speakers": 211,
            "risk": "at_risk",
            "series_type": "scenario",
            "family_root": "Arawakan",
            "latitude_map": -9.0,
            "longitude_map": -67.0,
            "vitality_group": "serious",
            "vitality_reason": "-3.2%/yr 2044→2045, 211 speakers → at_risk",
            "trend_confidence": "high"
        },
        {
            "iso_code": "apx",
            "name": "Aputai",
            "speakers": 79,
            "risk": "at_risk",
            "series_type": "scenario",
            "family_root": "Austronesian",
            "latitude_map": -7.6511,
            "longitude_map": 126.4086,
            "vitality_group": "serious",
            "vitality_reason": "-3.7%/yr 2044→2045, 79 speakers → at_risk",
            "trend_confidence": "high"
        },
        {
            "iso_code": "ard",
            "name": "Arabana-Wangkangurru",
            "speakers": null,
            "risk": "unknown",
            "series_type": "scenario",
            "family_root": "Pama-Nyungan",
            "latitude_map": -31.305219,
            "longitude_map": 138.428335,
            "vitality_group": "unknown",
            "vitality_reason": "no speaker data",
            "trend_confidence": "low"
        },
        {
            "iso_code": "arl",
            "name": "Arabela",
            "speakers": null,
            "risk": "lost",
            "series_type": "scenario",
            "family_root": "Zaparoan",
            "latitude_map": -1.5818,
            "longitude_map": -75.3881,
            "vitality_group": "gone",
            "vitality_reason": "-9.1%/yr 2040→2041, 10 speakers → lost",
            "trend_confidence": "high"
        },
        {
            "iso_code": "arg",
            "name": "Aragonese",
            "speakers": 2637,
            "risk": "at_risk",
            "series_type": "scenario",
            "family_root": "Indo-European",
            "latitude_map": 42.2935,
            "longitude_map": -0.4394,
            "vitality_group": "serious",
            "vitality_reason": "-3.0%/yr 2044→2045, 2637 speakers → at_risk",
            "trend_confidence": "high"
        },
        {
            "iso_code": "akr",
            "name": "Araki",
            "speakers": null,
            "risk": "lost",
            "series_type": "scenario",
            "family_root": "Austronesian",
            "latitude_map": -15.666667,
            "longitude_map": 166.916667,
            "vitality_group": "gone",
            "vitality_reason": "-9.1%/yr 2029→2030, 10 speakers → lost",
            "trend_confidence": "high"
        },
        {
            "iso_code": "aaf",
            "name": "Aranadan",
            "speakers": 105,
            "risk": "at_risk",
            "series_type": "scenario",
            "family_root": "Dravidian",
            "latitude_map": 11.35,
            "longitude_map": 75.8,
            "vitality_group": "serious",
            "vitality_reason": "-3.7%/yr 2044→2045, 105 speakers → at_risk",
            "trend_confidence": "high"
        },
        {
            "iso_code": "aro",
            "name": "Araona",
            "speakers": 74,
            "risk": "vulnerable",
            "series_type": "scenario",
            "family_root": "Pano-Tacanan",
            "latitude_map": -12.4473,
            "longitude_map": -68.1372,
            "vitality_group": "watch",
            "vitality_reason": "-2.6%/yr 2044→2045, 74 speakers → vulnerable",
            "trend_confidence": "high"
        },
        {
            "iso_code": "arp",
            "name": "Arapaho",
            "speakers": 273,
            "risk": "at_risk",
            "series_type": "scenario",
            "family_root": "Algic",
            "latitude_map": 43.0139,
            "longitude_map": -108.8214,
            "vitality_group": "serious",
            "vitality_reason": "-5.9%/yr 2044→2045, 273 speakers → at_risk",
            "trend_confidence": "high"
        },
        {
            "iso_code": "arj",
            "name": "Arapaso",
            "speakers": null,
            "risk": "unknown",
            "series_type": "scenario",
            "family_root": "Tucanoan",
            "latitude_map": 0.0,
            "longitude_map": -66.0,
            "vitality_group": "unknown",
            "vitality_reason": "no speaker data",
            "trend_confidence": "low"
        },
        {
            "iso_code": "axg",
            "name": "Arára of Mato Grosso",
            "speakers": null,
            "risk": "unknown",
            "series_type": "scenario",
            "family_root": "Isolate",
            "latitude_map": -9.777,
            "longitude_map": -59.398,
            "vitality_group": "unknown",
            "vitality_reason": "no speaker data",
            "trend_confidence": "low"
        },
        {
            "iso_code": "awt",
            "name": "Araweté",
            "speakers": 179,
            "risk": "vulnerable",
            "series_type": "scenario",
            "family_root": "Tupian",
            "latitude_map": -5.1347,
            "longitude_map": -52.3388,
            "vitality_group": "watch",
            "vitality_reason": "-2.7%/yr 2044→2045, 179 speakers → vulnerable",
            "trend_confidence": "high"
        },
        {
            "iso_code": "awm",
            "name": "Arawum",
            "speakers": 20,
            "risk": "critical",
            "series_type": "scenario",
            "family_root": "Trans-New Guinea",
            "latitude_map": -5.5093,
            "longitude_map": 145.8929,
            "vitality_group": "serious",
            "vitality_reason": "-4.8%/yr 2044→2045, 20 speakers → critical",
            "trend_confidence": "high"
        },
        {
            "iso_code": "aae",
            "name": "Arbëreshë",
            "speakers": 36402,
            "risk": "vulnerable",
            "series_type": "scenario",
            "family_root": "Indo-European",
            "latitude_map": 40.9321,
            "longitude_map": 14.8645,
            "vitality_group": "watch",
            "vitality_reason": "-1.5%/yr 2044→2045, 36402 speakers → vulnerable",
            "trend_confidence": "high"
        },
        {
            "iso_code": "arv",
            "name": "Arbore",
            "speakers": 2343,
            "risk": "vulnerable",
            "series_type": "scenario",
            "family_root": "Afro-Asiatic",
            "latitude_map": 5.0,
            "longitude_map": 36.75,
            "vitality_group": "watch",
            "vitality_reason": "-3.0%/yr 2044→2045, 2343 speakers → vulnerable",
            "trend_confidence": "high"
        },
        {
            "iso_code": "aqc",
            "name": "Archi",
            "speakers": 652,
            "risk": "at_risk",
            "series_type": "scenario",
            "family_root": "Northeast Caucasian",
            "latitude_map": 41.9839,
            "longitude_map": 46.8127,
            "vitality_group": "serious",
            "vitality_reason": "-3.1%/yr 2044→2045, 652 speakers → at_risk",
            "trend_confidence": "high"
        },
        {
            "iso_code": "aem",
            "name": "Arem",
            "speakers": 14,
            "risk": "critical",
            "series_type": "scenario",
            "family_root": "Austro-Asiatic",
            "latitude_map": 18.1771,
            "longitude_map": 105.3369,
            "vitality_group": "serious",
            "vitality_reason": "-6.7%/yr 2044→2045, 14 speakers → critical",
            "trend_confidence": "high"
        },
        {
            "iso_code": "aed",
            "name": "Argentine Sign Language",
            "speakers": null,
            "risk": "unknown",
            "series_type": "scenario",
            "family_root": "Not recorded",
            "latitude_map": -34.8,
            "longitude_map": -59.18,
            "vitality_group": "unknown",
            "vitality_reason": "no speaker data",
            "trend_confidence": "low"
        },
        {
            "iso_code": "agj",
            "name": "Argobba",
            "speakers": 7907,
            "risk": "vulnerable",
            "series_type": "scenario",
            "family_root": "Afro-Asiatic",
            "latitude_map": 10.5958,
            "longitude_map": 39.9792,
            "vitality_group": "watch",
            "vitality_reason": "-1.5%/yr 2044→2045, 7907 speakers → vulnerable",
            "trend_confidence": "high"
        },
        {
            "iso_code": "agf",
            "name": "Arguni",
            "speakers": 79,
            "risk": "at_risk",
            "series_type": "scenario",
            "family_root": "Austronesian",
            "latitude_map": -2.6632,
            "longitude_map": 132.5418,
            "vitality_group": "serious",
            "vitality_reason": "-3.7%/yr 2044→2045, 79 speakers → at_risk",
            "trend_confidence": "high"
        },
        {
            "iso_code": "aqr",
            "name": "Arhâ",
            "speakers": null,
            "risk": "lost",
            "series_type": "scenario",
            "family_root": "Austronesian",
            "latitude_map": -21.3047,
            "longitude_map": 165.0146,
            "vitality_group": "gone",
            "vitality_reason": "-9.1%/yr 2043→2044, 10 speakers → lost",
            "trend_confidence": "high"
        },
        {
            "iso_code": "aok",
            "name": "Arhö",
            "speakers": 17,
            "risk": "critical",
            "series_type": "scenario",
            "family_root": "Austronesian",
            "latitude_map": -21.274,
            "longitude_map": 165.0503,
            "vitality_group": "serious",
            "vitality_reason": "-5.6%/yr 2044→2045, 17 speakers → critical",
            "trend_confidence": "high"
        },
        {
            "iso_code": "aac",
            "name": "Ari",
            "speakers": 14,
            "risk": "critical",
            "series_type": "scenario",
            "family_root": "Trans-New Guinea",
            "latitude_map": -8.0,
            "longitude_map": 142.4,
            "vitality_group": "serious",
            "vitality_reason": "-6.7%/yr 2044→2045, 14 speakers → critical",
            "trend_confidence": "high"
        },
        {
            "iso_code": "aea",
            "name": "Ariba",
            "speakers": null,
            "risk": "lost",
            "series_type": "scenario",
            "family_root": "Pama-Nyungan",
            "latitude_map": -17.120653,
            "longitude_map": 141.833361,
            "vitality_group": "gone",
            "vitality_reason": "+0.0%/yr 2023→2024, 2 speakers → lost",
            "trend_confidence": "high"
        },
        {
            "iso_code": "aai",
            "name": "Arifama-Miniafia",
            "speakers": 1830,
            "risk": "at_risk",
            "series_type": "scenario",
            "family_root": "Austronesian",
            "latitude_map": -9.51824,
            "longitude_map": 149.349884,
            "vitality_group": "serious",
            "vitality_reason": "-3.0%/yr 2044→2045, 1830 speakers → at_risk",
            "trend_confidence": "high"
        },
        {
            "iso_code": "ark",
            "name": "Arikapú",
            "speakers": null,
            "risk": "lost",
            "series_type": "scenario",
            "family_root": "Jabutian",
            "latitude_map": -12.0527,
            "longitude_map": -64.7259,
            "vitality_group": "gone",
            "vitality_reason": "+0.0%/yr 2023→2024, 1 speakers → lost",
            "trend_confidence": "high"
        },
        {
            "iso_code": "ari",
            "name": "Arikara",
            "speakers": null,
            "risk": "lost",
            "series_type": "scenario",
            "family_root": "Caddoan",
            "latitude_map": 47.648,
            "longitude_map": -101.8327,
            "vitality_group": "gone",
            "vitality_reason": "-9.1%/yr 2034→2035, 10 speakers → lost",
            "trend_confidence": "high"
        },
        {
            "iso_code": "rup",
            "name": "Aromanian",
            "speakers": 184618,
            "risk": "at_risk",
            "series_type": "scenario",
            "family_root": "Indo-European",
            "latitude_map": 40.2292,
            "longitude_map": 21.1376,
            "vitality_group": "serious",
            "vitality_reason": "-3.0%/yr 2044→2045, 184618 speakers → at_risk",
            "trend_confidence": "high"
        },
        {
            "iso_code": "atz",
            "name": "Arta",
            "speakers": null,
            "risk": "lost",
            "series_type": "scenario",
            "family_root": "Austronesian",
            "latitude_map": 16.216,
            "longitude_map": 121.599,
            "vitality_group": "gone",
            "vitality_reason": "-9.1%/yr 2024→2025, 10 speakers → lost",
            "trend_confidence": "high"
        },
        {
            "iso_code": "alx",
            "name": "Aru",
            "speakers": 142,
            "risk": "at_risk",
            "series_type": "scenario",
            "family_root": "Torricelli",
            "latitude_map": -3.457063,
            "longitude_map": 142.539093,
            "vitality_group": "serious",
            "vitality_reason": "-3.4%/yr 2044→2045, 142 speakers → at_risk",
            "trend_confidence": "high"
        },
        {
            "iso_code": "arx",
            "name": "Aruá",
            "speakers": null,
            "risk": "lost",
            "series_type": "scenario",
            "family_root": "Tupian",
            "latitude_map": -12.0285,
            "longitude_map": -64.7094,
            "vitality_group": "gone",
            "vitality_reason": "+0.0%/yr 2023→2024, 5 speakers → lost",
            "trend_confidence": "high"
        },
        {
            "iso_code": "msy",
            "name": "Aruamu",
            "speakers": 2822,
            "risk": "vulnerable",
            "series_type": "scenario",
            "family_root": "Lower Sepik-Ramu",
            "latitude_map": -4.29,
            "longitude_map": 144.84,
            "vitality_group": "watch",
            "vitality_reason": "-3.0%/yr 2044→2045, 2822 speakers → vulnerable",
            "trend_confidence": "high"
        },
        {
            "iso_code": "aur",
            "name": "Aruek",
            "speakers": 324,
            "risk": "vulnerable",
            "series_type": "scenario",
            "family_root": "Torricelli",
            "latitude_map": -3.38,
            "longitude_map": 142.72,
            "vitality_group": "watch",
            "vitality_reason": "-3.0%/yr 2044→2045, 324 speakers → vulnerable",
            "trend_confidence": "high"
        },
        {
            "iso_code": "lsr",
            "name": "Aruop",
            "speakers": 369,
            "risk": "at_risk",
            "series_type": "scenario",
            "family_root": "Torricelli",
            "latitude_map": -3.46,
            "longitude_map": 142.48,
            "vitality_group": "serious",
            "vitality_reason": "-3.1%/yr 2044→2045, 369 speakers → at_risk",
            "trend_confidence": "high"
        },
        {
            "iso_code": "atx",
            "name": "Arutani",
            "speakers": null,
            "risk": "lost",
            "series_type": "scenario",
            "family_root": "Isolate",
            "latitude_map": 4.07,
            "longitude_map": -62.87,
            "vitality_group": "gone",
            "vitality_reason": "+0.0%/yr 2023→2024, 1 speakers → lost",
            "trend_confidence": "high"
        },
        {
            "iso_code": "aat",
            "name": "Arvanitika",
            "speakers": 36402,
            "risk": "vulnerable",
            "series_type": "scenario",
            "family_root": "Indo-European",
            "latitude_map": 38.1863,
            "longitude_map": 23.6096,
            "vitality_group": "watch",
            "vitality_reason": "-1.5%/yr 2044→2045, 36402 speakers → vulnerable",
            "trend_confidence": "high"
        },
        {
            "iso_code": "asz",
            "name": "As",
            "speakers": null,
            "risk": "lost",
            "series_type": "scenario",
            "family_root": "Austronesian",
            "latitude_map": -0.742007,
            "longitude_map": 131.683156,
            "vitality_group": "gone",
            "vitality_reason": "+0.0%/yr 2023→2024, 6 speakers → lost",
            "trend_confidence": "high"
        },
        {
            "iso_code": "seo",
            "name": "Asaba",
            "speakers": 76,
            "risk": "at_risk",
            "series_type": "scenario",
            "family_root": "Isolate",
            "latitude_map": -5.0526,
            "longitude_map": 141.9818,
            "vitality_group": "serious",
            "vitality_reason": "-3.8%/yr 2044→2045, 76 speakers → at_risk",
            "trend_confidence": "high"
        },
        {
            "iso_code": "cni",
            "name": "Asháninka",
            "speakers": 20385,
            "risk": "vulnerable",
            "series_type": "scenario",
            "family_root": "Arawakan",
            "latitude_map": -10.733,
            "longitude_map": -73.75,
            "vitality_group": "watch",
            "vitality_reason": "-1.5%/yr 2044→2045, 20385 speakers → vulnerable",
            "trend_confidence": "high"
        },
        {
            "iso_code": "cpc, cjo, prq, cpu, cpy, cpb",
            "name": "Ashéninka",
            "speakers": 14561,
            "risk": "vulnerable",
            "series_type": "scenario",
            "family_root": "Arawakan",
            "latitude_map": -10.933333,
            "longitude_map": -75.266667,
            "vitality_group": "watch",
            "vitality_reason": "-1.5%/yr 2044→2045, 14561 speakers → vulnerable",
            "trend_confidence": "high"
        },
        {
            "iso_code": "adi-ash",
            "name": "Ashing",
            "speakers": 728,
            "risk": "vulnerable",
            "series_type": "scenario",
            "family_root": "Sino-Tibetan",
            "latitude_map": 29.010278,
            "longitude_map": 94.901944,
            "vitality_group": "watch",
            "vitality_reason": "-1.5%/yr 2044→2045, 728 speakers → vulnerable",
            "trend_confidence": "high"
        },
        {
            "iso_code": "ask",
            "name": "Ashkun",
            "speakers": 1846,
            "risk": "vulnerable",
            "series_type": "scenario",
            "family_root": "Indo-European",
            "latitude_map": 34.9973,
            "longitude_map": 71.0746,
            "vitality_group": "watch",
            "vitality_reason": "-3.0%/yr 2044→2045, 1846 speakers → vulnerable",
            "trend_confidence": "high"
        },
        {
            "iso_code": "atn",
            "name": "Ashtiani",
            "speakers": 15362,
            "risk": "vulnerable",
            "series_type": "scenario",
            "family_root": "Indo-European",
            "latitude_map": 37.75,
            "longitude_map": 48.68,
            "vitality_group": "watch",
            "vitality_reason": "-1.5%/yr 2044→2045, 15362 speakers → vulnerable",
            "trend_confidence": "high"
        },
        {
            "iso_code": "08a",
            "name": "Aširat Northeastern Neo-Aramaic",
            "speakers": null,
            "risk": "unknown",
            "series_type": "scenario",
            "family_root": "Afro-Asiatic",
            "latitude_map": 37.2229,
            "longitude_map": 44.67,
            "vitality_group": "unknown",
            "vitality_reason": "no speaker data",
            "trend_confidence": "low"
        },
        {
            "iso_code": "sjg",
            "name": "Assangori",
            "speakers": 17109,
            "risk": "vulnerable",
            "series_type": "scenario",
            "family_root": "Taman",
            "latitude_map": 13.75,
            "longitude_map": 21.5,
            "vitality_group": "watch",
            "vitality_reason": "-1.5%/yr 2044→2045, 17109 speakers → vulnerable",
            "trend_confidence": "high"
        },
        {
            "iso_code": "asb",
            "name": "Assiniboine",
            "speakers": 40,
            "risk": "critical",
            "series_type": "scenario",
            "family_root": "Siouan",
            "latitude_map": 48.4466,
            "longitude_map": -114.8783,
            "vitality_group": "serious",
            "vitality_reason": "-2.4%/yr 2044→2045, 40 speakers → critical",
            "trend_confidence": "high"
        },
        {
            "iso_code": "ast",
            "name": "Asturian",
            "speakers": 80085,
            "risk": "vulnerable",
            "series_type": "scenario",
            "family_root": "Indo-European",
            "latitude_map": 43.25,
            "longitude_map": -6.0,
            "vitality_group": "watch",
            "vitality_reason": "-1.5%/yr 2044→2045, 80085 speakers → vulnerable",
            "trend_confidence": "high"
        },
        {
            "iso_code": "aua",
            "name": "Asumboa",
            "speakers": null,
            "risk": "lost",
            "series_type": "scenario",
            "family_root": "Austronesian",
            "latitude_map": -11.2982,
            "longitude_map": 166.4868,
            "vitality_group": "gone",
            "vitality_reason": "+0.0%/yr 2023→2024, 10 speakers → lost",
            "trend_confidence": "high"
        },
        {
            "iso_code": "zoo",
            "name": "Asunción Mixtepec Zapotec",
            "speakers": 73,
            "risk": "vulnerable",
            "series_type": "scenario",
            "family_root": "Otomanguean",
            "latitude_map": 16.88,
            "longitude_map": -96.87,
            "vitality_group": "watch",
            "vitality_reason": "-1.4%/yr 2044→2045, 73 speakers → vulnerable",
            "trend_confidence": "high"
        },
        {
            "iso_code": "asr",
            "name": "Asuri",
            "speakers": 3692,
            "risk": "at_risk",
            "series_type": "scenario",
            "family_root": "Austro-Asiatic",
            "latitude_map": 22.4719,
            "longitude_map": 84.9023,
            "vitality_group": "serious",
            "vitality_reason": "-3.0%/yr 2044→2045, 3692 speakers → at_risk",
            "trend_confidence": "high"
        },
        {
            "iso_code": "asu",
            "name": "Asuriní do Tocantins",
            "speakers": 203,
            "risk": "vulnerable",
            "series_type": "scenario",
            "family_root": "Tupian",
            "latitude_map": -3.5,
            "longitude_map": -50.0,
            "vitality_group": "watch",
            "vitality_reason": "-2.9%/yr 2044→2045, 203 speakers → vulnerable",
            "trend_confidence": "high"
        },
        {
            "iso_code": "asn",
            "name": "Asuriní of Xingú",
            "speakers": 58,
            "risk": "at_risk",
            "series_type": "scenario",
            "family_root": "Tupian",
            "latitude_map": -3.9095,
            "longitude_map": -52.4707,
            "vitality_group": "serious",
            "vitality_reason": "-3.3%/yr 2044→2045, 58 speakers → at_risk",
            "trend_confidence": "high"
        },
        {
            "iso_code": "atm",
            "name": "Ata",
            "speakers": null,
            "risk": "lost",
            "series_type": "scenario",
            "family_root": "Austronesian",
            "latitude_map": 9.6081,
            "longitude_map": 122.9155,
            "vitality_group": "gone",
            "vitality_reason": "+0.0%/yr 2023→2024, 4 speakers → lost",
            "trend_confidence": "high"
        },
        {
            "iso_code": "amz",
            "name": "Atampaya",
            "speakers": null,
            "risk": "lost",
            "series_type": "scenario",
            "family_root": "Pama-Nyungan",
            "latitude_map": -11.482111,
            "longitude_map": 142.374378,
            "vitality_group": "gone",
            "vitality_reason": "+0.0%/yr 2023→2024, 4 speakers → lost",
            "trend_confidence": "high"
        },
        {
            "iso_code": "aph",
            "name": "Athpariya",
            "speakers": 965,
            "risk": "at_risk",
            "series_type": "scenario",
            "family_root": "Sino-Tibetan",
            "latitude_map": 26.952,
            "longitude_map": 87.3399,
            "vitality_group": "serious",
            "vitality_reason": "-3.0%/yr 2044→2045, 965 speakers → at_risk",
            "trend_confidence": "high"
        },
        {
            "iso_code": "atk",
            "name": "Ati (Philippines)",
            "speakers": 551,
            "risk": "vulnerable",
            "series_type": "scenario",
            "family_root": "Austronesian",
            "latitude_map": 11.15,
            "longitude_map": 122.51,
            "vitality_group": "watch",
            "vitality_reason": "-3.0%/yr 2044→2045, 551 speakers → vulnerable",
            "trend_confidence": "high"
        },
        {
            "iso_code": "ato",
            "name": "Atong (Cameroon)",
            "speakers": 3058,
            "risk": "vulnerable",
            "series_type": "scenario",
            "family_root": "Niger-Congo",
            "latitude_map": 6.044967,
            "longitude_map": 9.748787,
            "vitality_group": "watch",
            "vitality_reason": "-1.5%/yr 2044→2045, 3058 speakers → vulnerable",
            "trend_confidence": "high"
        },
        {
            "iso_code": "aot",
            "name": "Atong (India)",
            "speakers": null,
            "risk": "unknown",
            "series_type": "scenario",
            "family_root": "Sino-Tibetan",
            "latitude_map": 25.2844,
            "longitude_map": 91.1755,
            "vitality_group": "unknown",
            "vitality_reason": "no speaker data",
            "trend_confidence": "low"
        },
        {
            "iso_code": "atw",
            "name": "Atsugewi",
            "speakers": null,
            "risk": "unknown",
            "series_type": "scenario",
            "family_root": "Palaihnihan",
            "latitude_map": 40.75,
            "longitude_map": -121.0,
            "vitality_group": "unknown",
            "vitality_reason": "no speaker data",
            "trend_confidence": "low"
        },
        {
            "iso_code": "atj",
            "name": "Attikamek",
            "speakers": 2184,
            "risk": "vulnerable",
            "series_type": "scenario",
            "family_root": "Algic",
            "latitude_map": 47.2104,
            "longitude_map": -74.3827,
            "vitality_group": "watch",
            "vitality_reason": "-1.5%/yr 2044→2045, 2184 speakers → vulnerable",
            "trend_confidence": "high"
        },
        {
            "iso_code": "avt",
            "name": "Au",
            "speakers": 2215,
            "risk": "at_risk",
            "series_type": "scenario",
            "family_root": "Torricelli",
            "latitude_map": -3.6,
            "longitude_map": 142.1,
            "vitality_group": "serious",
            "vitality_reason": "-3.0%/yr 2044→2045, 2215 speakers → at_risk",
            "trend_confidence": "high"
        },
        {
            "iso_code": "aul",
            "name": "Aulua",
            "speakers": 396,
            "risk": "vulnerable",
            "series_type": "scenario",
            "family_root": "Austronesian",
            "latitude_map": -16.36,
            "longitude_map": 167.7,
            "vitality_group": "watch",
            "vitality_reason": "-2.9%/yr 2044→2045, 396 speakers → vulnerable",
            "trend_confidence": "high"
        },
        {
            "iso_code": "aux",
            "name": "Auré",
            "speakers": null,
            "risk": "unknown",
            "series_type": "scenario",
            "family_root": "Tupian",
            "latitude_map": -2.9649,
            "longitude_map": -46.2084,
            "vitality_group": "unknown",
            "vitality_reason": "no speaker data",
            "trend_confidence": "low"
        },
        {
            "iso_code": "aut",
            "name": "Austral",
            "speakers": 4220,
            "risk": "vulnerable",
            "series_type": "scenario",
            "family_root": "Austronesian",
            "latitude_map": -23.3775,
            "longitude_map": -149.4909,
            "vitality_group": "watch",
            "vitality_reason": "-3.0%/yr 2044→2045, 4220 speakers → vulnerable",
            "trend_confidence": "high"
        },
        {
            "iso_code": "asf",
            "name": "Australian Sign Language",
            "speakers": 3429,
            "risk": "vulnerable",
            "series_type": "scenario",
            "family_root": "Sign Language",
            "latitude_map": -35.3075,
            "longitude_map": 149.124417,
            "vitality_group": "watch",
            "vitality_reason": "-3.0%/yr 2044→2045, 3429 speakers → vulnerable",
            "trend_confidence": "high"
        },
        {
            "iso_code": "oci-auv",
            "name": "Auvergnat",
            "speakers": 109207,
            "risk": "vulnerable",
            "series_type": "scenario",
            "family_root": "Indo-European",
            "latitude_map": 45.1278,
            "longitude_map": 3.1311,
            "vitality_group": "watch",
            "vitality_reason": "-1.5%/yr 2044→2045, 109207 speakers → vulnerable",
            "trend_confidence": "high"
        },
        {
            "iso_code": "smf",
            "name": "Auwe",
            "speakers": 142,
            "risk": "at_risk",
            "series_type": "scenario",
            "family_root": "Border",
            "latitude_map": -3.34,
            "longitude_map": 141.25,
            "vitality_group": "serious",
            "vitality_reason": "-3.4%/yr 2044→2045, 142 speakers → at_risk",
            "trend_confidence": "high"
        },
        {
            "iso_code": "auu",
            "name": "Auye",
            "speakers": 185,
            "risk": "vulnerable",
            "series_type": "scenario",
            "family_root": "Trans-New Guinea",
            "latitude_map": -3.5627,
            "longitude_map": 135.9915,
            "vitality_group": "watch",
            "vitality_reason": "-2.6%/yr 2044→2045, 185 speakers → vulnerable",
            "trend_confidence": "high"
        },
        {
            "iso_code": "avv",
            "name": "Avá",
            "speakers": null,
            "risk": "lost",
            "series_type": "scenario",
            "family_root": "Tupian",
            "latitude_map": -14.0847,
            "longitude_map": -48.0418,
            "vitality_group": "gone",
            "vitality_reason": "-9.1%/yr 2030→2031, 10 speakers → lost",
            "trend_confidence": "high"
        },
        {
            "iso_code": "tmb",
            "name": "Avava",
            "speakers": 510,
            "risk": "vulnerable",
            "series_type": "scenario",
            "family_root": "Austronesian",
            "latitude_map": -16.233418,
            "longitude_map": 167.470106,
            "vitality_group": "watch",
            "vitality_reason": "-1.4%/yr 2044→2045, 510 speakers → vulnerable",
            "trend_confidence": "high"
        },
        {
            "iso_code": "dix",
            "name": "Aveteian",
            "speakers": 14,
            "risk": "critical",
            "series_type": "scenario",
            "family_root": "Austronesian",
            "latitude_map": -16.33,
            "longitude_map": 167.52,
            "vitality_group": "serious",
            "vitality_reason": "-6.7%/yr 2044→2045, 14 speakers → critical",
            "trend_confidence": "high"
        },